#version,serial,flight,call,time,rssi,lqi,state,state_name,acceleration,pressure,altitude,height,speed,temperature,drogue_voltage,main_voltage,battery_voltage,accel_x,accel_y,accel_z,gyro_roll,gyro_pitch,gyro_yaw,mag_x,mag_y,mag_z,tilt,pyro,igniter_a,igniter_b,igniter_c,igniter_d,connected,locked,nsat,latitude,longitude,altitude,year,month,day,hour,minute,second,pad_dist,pad_range,pad_az,pad_el,pdop,hdop,vdop,sat01,sat02,sat03,sat04,sat05,sat06,sat07,sat08,sat09,sat10,sat11,sat12,sat13,sat14,sat15,sat16,sat17,sat18,sat19,sat20,sat21,sat22,sat23,sat24,sat25,sat26,sat27,sat28,sat29,sat30,sat31,sat32,,Max Speed,372,m/s
6,11041,4,KJ5AXH,-1.73,-91,15,3,boost,-1.51,86683,1297.07,-0.94,0,34.7,0,0,4.06,9.94,-0.15,-0.18,0.37,-0.12,-0.24,0.29,0.51,0,1,4.05,4.08,4.08,0,4.08,1,1,8,32.9474436,-106.9100883,1393,2024,6,20,16,42,47,1,1,56,44,1.9,1.2,1.5,0,0,0,0,24,34,0,0,0,0,28,32,0,0,0,0,0,25,35,22,0,0,0,22,29,0,0,36,31,0,0,0,,,1219,ft/s
6,11041,4,KJ5AXH,-1.65,-90,7,3,boost,-1.51,86683,1297.07,-0.94,0,34.7,0,0,4.06,9.94,-0.15,-0.18,0.37,-0.12,-0.24,0.29,0.51,0,1,4.05,4.08,4.08,0,4.08,1,1,8,32.9474436,-106.9100883,1393,2024,6,20,16,42,47,1,1,56,44,1.9,1.2,1.5,0,0,0,0,24,34,0,0,0,0,28,32,0,0,0,0,0,25,35,22,0,0,0,22,29,0,0,36,31,0,0,0,,Acceleration,101,m/s^2
6,11041,4,KJ5AXH,-1.59,-79,4,3,boost,-1.51,86683,1297.07,-0.94,0,34.7,0,0,4.06,9.94,-0.15,-0.18,0.37,-0.12,-0.24,0.29,0.51,0,1,4.05,4.08,4.08,0,4.08,1,1,8,32.9474446,-106.9100886,1393,2024,6,20,16,42,48,1,1,50,43,1.9,1.2,1.5,0,0,0,0,24,34,0,0,0,0,28,31,0,0,0,0,0,25,35,22,0,0,0,23,29,0,0,35,31,0,0,0,,,332,ft/s^2
6,11041,4,KJ5AXH,-1.59,-78,7,3,boost,-1.51,86683,1297.07,-0.94,0,34.7,0,0,4.06,9.94,-0.15,-0.18,0.37,-0.12,-0.24,0.29,0.51,0,1,4.05,4.08,4.08,0,4.08,1,1,8,32.9474446,-106.9100886,1393,2024,6,20,16,42,48,1,1,50,43,1.9,1.2,1.5,0,0,0,0,24,34,0,0,0,0,28,31,0,0,0,0,0,25,35,22,0,0,0,23,29,0,0,35,31,0,0,0,,,10.3,gees
6,11041,4,KJ5AXH,-0.72,-87,5,3,boost,13.08,86668,1298.48,0.47,5.84,34.7,0,0,4.06,16.37,-3.18,1.9,26.25,18.98,-4.46,0.29,0.5,0.03,1,4.05,4.08,4.08,0,4.08,1,1,8,32.9474446,-106.9100886,1393,2024,6,20,16,42,48,1,1,50,43,1.9,1.2,1.5,0,0,0,0,24,34,0,0,0,0,28,31,0,0,0,0,0,25,35,22,0,0,0,23,29,0,0,35,31,0,0,0,,,,
6,11041,4,KJ5AXH,-0.59,-66,7,3,boost,13.08,86668,1298.48,0.47,5.84,34.7,0,0,4.06,16.37,-3.18,1.9,26.25,18.98,-4.46,0.29,0.5,0.03,1,4.05,4.08,4.08,0,4.08,1,1,8,32.9474385,-106.9100974,1392,2024,6,20,16,42,49,0,0,0,0,1.9,1.2,1.5,0,0,0,0,24,34,0,0,0,0,28,31,0,0,0,0,0,24,36,21,0,0,0,23,29,0,0,35,31,0,0,0,,,,
6,11041,4,KJ5AXH,-0.59,-65,9,3,boost,13.08,86668,1298.48,0.47,5.84,34.7,0,0,4.06,16.37,-3.18,1.9,26.25,18.98,-4.46,0.29,0.5,0.03,1,4.05,4.08,4.08,0,4.08,1,1,8,32.9474385,-106.9100974,1392,2024,6,20,16,42,49,0,0,0,0,1.9,1.2,1.5,0,0,0,0,24,34,0,0,0,0,28,31,0,0,0,0,0,24,36,21,0,0,0,23,29,0,0,35,31,0,0,0,,,,
6,11041,4,KJ5AXH,-0.08,-76,8,3,boost,54.31,86566,1308.12,10.11,27.39,34.7,0,0,4.06,61.63,2.69,-3.66,-52.98,5.62,-7.45,0.19,0.42,0.12,2,4.05,4.08,4.08,0,4.08,1,1,8,32.9474385,-106.9100974,1392,2024,6,20,16,42,49,0,0,0,0,1.9,1.2,1.5,0,0,0,0,24,34,0,0,0,0,28,31,0,0,0,0,0,24,36,21,0,0,0,23,29,0,0,35,31,0,0,0,,,,
6,11041,4,KJ5AXH,0,-74,7,3,boost,54.31,86566,1308.12,10.11,27.39,34.7,0,0,4.07,61.63,2.69,-3.66,-52.98,5.62,-7.45,0.19,0.42,0.12,2,4.06,4.02,4.08,0,4.02,1,1,8,32.9474385,-106.9100974,1392,2024,6,20,16,42,49,0,0,0,0,1.9,1.2,1.5,0,0,0,0,24,34,0,0,0,0,28,31,0,0,0,0,0,24,36,21,0,0,0,23,29,0,0,35,31,0,0,0,,,,
6,11041,4,KJ5AXH,0,-73,6,3,boost,54.31,86566,1308.12,10.11,27.39,34.7,0,0,4.07,61.63,2.69,-3.66,-52.98,5.62,-7.45,0.19,0.42,0.12,2,4.06,4.02,4.08,0,4.02,1,1,8,32.9474385,-106.9100974,1392,2024,6,20,16,42,49,0,0,0,0,1.9,1.2,1.5,0,0,0,0,24,34,0,0,0,0,28,31,0,0,0,0,0,24,36,21,0,0,0,23,29,0,0,35,31,0,0,0,,,,
6,11041,4,KJ5AXH,0.41,-66,6,3,boost,54.31,86566,1308.12,10.11,27.39,34.7,0,0,4.07,61.63,2.69,-3.66,-52.98,5.62,-7.45,0.19,0.42,0.12,2,4.06,4.02,4.08,0,4.02,1,1,8,32.9474951,-106.9100962,1413,2024,6,20,16,42,50,6,22,1,73,1.9,1.2,1.5,0,0,0,0,25,36,0,0,0,0,29,31,0,0,0,0,0,22,34,21,0,0,0,25,28,0,0,36,35,0,0,0,,,,
6,11041,4,KJ5AXH,0.41,-66,8,3,boost,54.31,86566,1308.12,10.11,27.39,34.7,0,0,4.07,61.63,2.69,-3.66,-52.98,5.62,-7.45,0.19,0.42,0.12,2,4.06,4.02,4.08,0,4.02,1,1,8,32.9474951,-106.9100962,1413,2024,6,20,16,42,50,6,22,1,73,1.9,1.2,1.5,0,0,0,0,25,36,0,0,0,0,29,31,0,0,0,0,0,22,34,21,0,0,0,25,28,0,0,36,35,0,0,0,,,,
6,11041,4,KJ5AXH,0.43,-69,7,3,boost,62.86,86337,1329.8,31.79,57.19,34.7,0,0,4.07,69.48,2.23,1.19,-89.66,5.37,-9.52,0.18,0.32,0.29,5,4.06,4.02,4.08,0,4.02,1,1,8,32.9474951,-106.9100962,1413,2024,6,20,16,42,50,6,22,1,73,1.9,1.2,1.5,0,0,0,0,25,36,0,0,0,0,29,31,0,0,0,0,0,22,34,21,0,0,0,25,28,0,0,36,35,0,0,0,,,,
6,11041,4,KJ5AXH,0.51,-67,5,3,boost,62.86,86337,1329.8,31.79,57.19,34.7,0,0,4.07,69.48,2.23,1.19,-89.66,5.37,-9.52,0.18,0.32,0.29,5,4.06,4.08,4.08,0,4.02,1,1,8,32.9474951,-106.9100962,1413,2024,6,20,16,42,50,6,22,1,73,1.9,1.2,1.5,0,0,0,0,25,36,0,0,0,0,29,31,0,0,0,0,0,22,34,21,0,0,0,25,28,0,0,36,35,0,0,0,,,,
6,11041,4,KJ5AXH,0.94,-67,10,3,boost,101.08,86017,1360.17,62.16,98.41,34.7,0,0,4.07,73.93,0.85,2.71,-94.6,0.06,-9.4,0.18,0.18,0.33,11,4.06,4.08,4.08,0,4.02,1,1,8,32.9474951,-106.9100962,1413,2024,6,20,16,42,50,6,22,1,73,1.9,1.2,1.5,0,0,0,0,25,36,0,0,0,0,29,31,0,0,0,0,0,22,34,21,0,0,0,25,28,0,0,36,35,0,0,0,,,,
6,11041,4,KJ5AXH,1.02,-66,6,3,boost,101.08,86017,1360.17,62.16,98.41,34.7,0,0,4.07,73.93,0.85,2.71,-94.6,0.06,-9.4,0.18,0.18,0.33,11,4.07,4.08,4.08,0,4.08,1,1,8,32.9474951,-106.9100962,1413,2024,6,20,16,42,50,6,22,1,73,1.9,1.2,1.5,0,0,0,0,25,36,0,0,0,0,29,31,0,0,0,0,0,22,34,21,0,0,0,25,28,0,0,36,35,0,0,0,,,,
6,11041,4,KJ5AXH,1.42,-76,8,3,boost,101.08,86017,1360.17,62.16,98.41,34.7,0,0,4.07,73.93,0.85,2.71,-94.6,0.06,-9.4,0.18,0.18,0.33,11,4.07,4.08,4.08,0,4.08,1,1,7,32.9476509,-106.9100494,1463,2024,6,20,16,42,51,24,75,11,71,2.1,1.2,1.7,0,0,0,0,24,33,0,0,0,0,21,21,0,0,0,0,0,22,32,18,0,0,0,26,26,0,0,27,30,0,0,0,,,,
6,11041,4,KJ5AXH,1.42,-78,6,3,boost,101.08,86017,1360.17,62.16,98.41,34.7,0,0,4.07,73.93,0.85,2.71,-94.6,0.06,-9.4,0.18,0.18,0.33,11,4.07,4.08,4.08,0,4.08,1,1,7,32.9476509,-106.9100494,1463,2024,6,20,16,42,51,24,75,11,71,2.1,1.2,1.7,0,0,0,0,24,33,0,0,0,0,21,21,0,0,0,0,0,22,32,18,0,0,0,26,26,0,0,27,30,0,0,0,,,,
6,11041,4,KJ5AXH,1.45,-69,6,3,boost,35.71,85523,1407.23,109.22,132.55,34.7,0,0,4.07,67.29,3.14,-1.4,-107.85,4.27,9.7,0.18,-0.01,0.26,11,4.07,4.08,4.08,0,4.08,1,1,7,32.9476509,-106.9100494,1463,2024,6,20,16,42,51,24,75,11,71,2.1,1.2,1.7,0,0,0,0,24,33,0,0,0,0,21,21,0,0,0,0,0,22,32,18,0,0,0,26,26,0,0,27,30,0,0,0,,,,
6,11041,4,KJ5AXH,1.53,-67,6,3,boost,35.71,85523,1407.23,109.22,132.55,34.7,0,0,4.07,67.29,3.14,-1.4,-107.85,4.27,9.7,0.18,-0.01,0.26,11,4.05,4.08,4.08,0,4.08,1,1,7,32.9476509,-106.9100494,1463,2024,6,20,16,42,51,24,75,11,71,2.1,1.2,1.7,0,0,0,0,24,33,0,0,0,0,21,21,0,0,0,0,0,22,32,18,0,0,0,26,26,0,0,27,30,0,0,0,,,,
6,11041,4,KJ5AXH,1.96,-67,7,3,boost,68.9,84950,1462.1,164.09,158.71,34.7,0,0,4.07,67.49,1.59,1.21,-136.84,2.62,2.38,0.18,-0.05,0,10,4.05,4.08,4.08,0,4.08,1,1,7,32.9476509,-106.9100494,1463,2024,6,20,16,42,51,24,75,11,71,2.1,1.2,1.7,0,0,0,0,24,33,0,0,0,0,21,21,0,0,0,0,0,22,32,18,0,0,0,26,26,0,0,27,30,0,0,0,,,,
6,11041,4,KJ5AXH,2.04,-69,7,3,boost,68.9,84950,1462.1,164.09,158.71,34.7,0,0,4.07,67.49,1.59,1.21,-136.84,2.62,2.38,0.18,-0.05,0,10,4.06,4.08,4.08,0,4.32,1,1,7,32.9476509,-106.9100494,1463,2024,6,20,16,42,51,24,75,11,71,2.1,1.2,1.7,0,0,0,0,24,33,0,0,0,0,21,21,0,0,0,0,0,22,32,18,0,0,0,26,26,0,0,27,30,0,0,0,,,,
6,11041,4,KJ5AXH,2.41,-72,7,3,boost,68.9,84950,1462.1,164.09,158.71,34.7,0,0,4.07,67.49,1.59,1.21,-136.84,2.62,2.38,0.18,-0.05,0,10,4.06,4.08,4.08,0,4.32,1,1,7,32.947909,-106.9099174,1544,2024,6,20,16,42,52,55,162,18,70,2.1,1.2,1.7,0,0,0,0,20,27,0,0,0,0,17,17,0,0,0,0,0,26,33,15,0,0,0,27,26,0,0,26,25,0,0,0,,,,
6,11041,4,KJ5AXH,2.41,-73,6,3,boost,68.9,84950,1462.1,164.09,158.71,34.7,0,0,4.07,67.49,1.59,1.21,-136.84,2.62,2.38,0.18,-0.05,0,10,4.06,4.08,4.08,0,4.32,1,1,7,32.947909,-106.9099174,1544,2024,6,20,16,42,52,55,162,18,70,2.1,1.2,1.7,0,0,0,0,20,27,0,0,0,0,17,17,0,0,0,0,0,26,33,15,0,0,0,27,26,0,0,26,25,0,0,0,,,,
6,11041,4,KJ5AXH,2.47,-70,9,3,boost,40.74,84256,1528.95,230.94,186.08,34.7,0,0,4.07,64.69,1.53,2.62,-216.25,-4.33,1.04,0.19,0.28,-0.13,12,4.06,4.08,4.08,0,4.32,1,1,7,32.947909,-106.9099174,1544,2024,6,20,16,42,52,55,162,18,70,2.1,1.2,1.7,0,0,0,0,20,27,0,0,0,0,17,17,0,0,0,0,0,26,33,15,0,0,0,27,26,0,0,26,25,0,0,0,,,,
6,11041,4,KJ5AXH,2.55,-73,8,3,boost,40.74,84256,1528.95,230.94,186.08,34.7,0,0,4.07,64.69,1.53,2.62,-216.25,-4.33,1.04,0.19,0.28,-0.13,12,4.07,4.08,4.08,0,4.08,1,1,7,32.947909,-106.9099174,1544,2024,6,20,16,42,52,55,162,18,70,2.1,1.2,1.7,0,0,0,0,20,27,0,0,0,0,17,17,0,0,0,0,0,26,33,15,0,0,0,27,26,0,0,26,25,0,0,0,,,,
6,11041,4,KJ5AXH,2.98,-68,6,3,boost,37.72,83386,1613.4,315.39,205.62,34.7,0,0,4.07,60.79,1.92,1.12,-282.84,-4.94,2.14,0.2,0.28,0.3,10,4.07,4.08,4.08,0,4.08,1,1,7,32.947909,-106.9099174,1544,2024,6,20,16,42,52,55,162,18,70,2.1,1.2,1.7,0,0,0,0,20,27,0,0,0,0,17,17,0,0,0,0,0,26,33,15,0,0,0,27,26,0,0,26,25,0,0,0,,,,
6,11041,4,KJ5AXH,3.06,-67,10,3,boost,37.72,83386,1613.4,315.39,205.62,34.7,0,0,4.07,60.79,1.92,1.12,-282.84,-4.94,2.14,0.2,0.28,0.3,10,4.05,4.08,4.08,0,4.08,1,1,7,32.947909,-106.9099174,1544,2024,6,20,16,42,52,55,162,18,70,2.1,1.2,1.7,0,0,0,0,20,27,0,0,0,0,17,17,0,0,0,0,0,26,33,15,0,0,0,27,26,0,0,26,25,0,0,0,,,,
6,11041,4,KJ5AXH,3.41,-72,7,3,boost,37.72,83386,1613.4,315.39,205.62,34.7,0,0,4.07,60.79,1.92,1.12,-282.84,-4.94,2.14,0.2,0.28,0.3,10,4.05,4.08,4.08,0,4.08,1,1,6,32.9481378,-106.909658,1649,2024,6,20,16,42,53,88,272,28,71,2.3,1.5,1.7,0,0,0,0,13,25,0,0,0,0,11,10,0,0,0,0,0,27,27,12,0,0,0,27,31,0,0,27,35,0,0,0,,,,
6,11041,4,KJ5AXH,3.41,-68,6,3,boost,37.72,83386,1613.4,315.39,205.62,34.7,0,0,4.07,60.79,1.92,1.12,-282.84,-4.94,2.14,0.2,0.28,0.3,10,4.05,4.08,4.08,0,4.08,1,1,6,32.9481378,-106.909658,1649,2024,6,20,16,42,53,88,272,28,71,2.3,1.5,1.7,0,0,0,0,13,25,0,0,0,0,11,10,0,0,0,0,0,27,27,12,0,0,0,27,31,0,0,27,35,0,0,0,,,,
6,11041,4,KJ5AXH,3.49,-73,7,3,boost,51.8,82484,1701.7,403.69,227.92,34.7,0,0,4.07,59.1,2.99,1.57,-360.78,-6.23,4.64,0.18,0.01,-0.08,12,4.05,4.08,4.08,0,4.08,1,1,6,32.9481378,-106.909658,1649,2024,6,20,16,42,53,88,272,28,71,2.3,1.5,1.7,0,0,0,0,13,25,0,0,0,0,11,10,0,0,0,0,0,27,27,12,0,0,0,27,31,0,0,27,35,0,0,0,,,,
6,11041,4,KJ5AXH,3.57,-73,6,3,boost,51.8,82484,1701.7,403.69,227.92,34.7,0,0,4.06,59.1,2.99,1.57,-360.78,-6.23,4.64,0.18,0.01,-0.08,12,4.07,4.08,4.08,0,4.08,1,1,6,32.9481378,-106.909658,1649,2024,6,20,16,42,53,88,272,28,71,2.3,1.5,1.7,0,0,0,0,13,25,0,0,0,0,11,10,0,0,0,0,0,27,27,12,0,0,0,27,31,0,0,27,35,0,0,0,,,,
6,11041,4,KJ5AXH,4,-71,7,3,boost,46.77,82092,1740.32,442.31,252.45,34.7,0,0,4.06,54.39,1.82,3.01,-427.86,-8.67,3.3,0.2,0.25,0.3,11,4.07,4.08,4.08,0,4.08,1,1,6,32.9481378,-106.909658,1649,2024,6,20,16,42,53,88,272,28,71,2.3,1.5,1.7,0,0,0,0,13,25,0,0,0,0,11,10,0,0,0,0,0,27,27,12,0,0,0,27,31,0,0,27,35,0,0,0,,,,
6,11041,4,KJ5AXH,4.08,-69,5,3,boost,46.77,82092,1740.32,442.31,252.45,34.7,0,0,4.07,54.39,1.82,3.01,-427.86,-8.67,3.3,0.2,0.25,0.3,11,4.07,4.08,4.08,0,4.08,1,1,6,32.9481378,-106.909658,1649,2024,6,20,16,42,53,88,272,28,71,2.3,1.5,1.7,0,0,0,0,13,25,0,0,0,0,11,10,0,0,0,0,0,27,27,12,0,0,0,27,31,0,0,27,35,0,0,0,,,,
6,11041,4,KJ5AXH,4.41,-73,8,3,boost,46.77,82092,1740.32,442.31,252.45,34.7,0,0,4.07,54.39,1.82,3.01,-427.86,-8.67,3.3,0.2,0.25,0.3,11,4.07,4.08,4.08,0,4.08,1,1,4,32.9481988,-106.9092008,1848,2024,6,20,16,42,54,119,471,45,75,3.9,2.2,3.2,0,0,0,0,9,25,0,0,0,0,9,9,0,0,0,0,0,27,32,0,0,0,0,27,25,0,0,27,25,0,0,0,,,,
6,11041,4,KJ5AXH,4.41,-77,5,3,boost,46.77,82092,1740.32,442.31,252.45,34.7,0,0,4.07,54.39,1.82,3.01,-427.86,-8.67,3.3,0.2,0.25,0.3,11,4.07,4.08,4.08,0,4.08,1,1,4,32.9481988,-106.9092008,1848,2024,6,20,16,42,54,119,471,45,75,3.9,2.2,3.2,0,0,0,0,9,25,0,0,0,0,9,9,0,0,0,0,0,27,32,0,0,0,0,27,25,0,0,27,25,0,0,0,,,,
6,11041,4,KJ5AXH,4.51,-70,8,3,boost,49.28,79970,1952.01,654,276.35,34.6,0,0,4.07,59.17,3.96,3.66,-527.89,0.37,4.27,0.18,0.34,-0.1,12,4.07,4.08,4.08,0,4.08,1,1,4,32.9481988,-106.9092008,1848,2024,6,20,16,42,54,119,471,45,75,3.9,2.2,3.2,0,0,0,0,9,25,0,0,0,0,9,9,0,0,0,0,0,27,32,0,0,0,0,27,25,0,0,27,25,0,0,0,,,,
6,11041,4,KJ5AXH,4.59,-75,8,3,boost,49.28,79970,1952.01,654,276.35,34.6,0,0,4.07,59.17,3.96,3.66,-527.89,0.37,4.27,0.18,0.34,-0.1,12,4.06,4.08,4.08,0,4.08,1,1,4,32.9481988,-106.9092008,1848,2024,6,20,16,42,54,119,471,45,75,3.9,2.2,3.2,0,0,0,0,9,25,0,0,0,0,9,9,0,0,0,0,0,27,32,0,0,0,0,27,25,0,0,27,25,0,0,0,,,,
6,11041,4,KJ5AXH,5.02,-75,6,3,boost,59.34,78941,2056.31,758.3,303.39,34.6,0,0,4.07,61.47,4.86,4.78,-605.47,10.99,-8.73,0.19,0.1,-0.13,11,4.06,4.08,4.08,0,4.08,1,1,4,32.9481988,-106.9092008,1848,2024,6,20,16,42,54,119,471,45,75,3.9,2.2,3.2,0,0,0,0,9,25,0,0,0,0,9,9,0,0,0,0,0,27,32,0,0,0,0,27,25,0,0,27,25,0,0,0,,,,
6,11041,4,KJ5AXH,5.1,-74,6,3,boost,59.34,78941,2056.31,758.3,303.39,34.6,0,0,4.06,61.47,4.86,4.78,-605.47,10.99,-8.73,0.19,0.1,-0.13,11,4.06,4.08,4.08,0,4.02,1,1,4,32.9481988,-106.9092008,1848,2024,6,20,16,42,54,119,471,45,75,3.9,2.2,3.2,0,0,0,0,9,25,0,0,0,0,9,9,0,0,0,0,0,27,32,0,0,0,0,27,25,0,0,27,25,0,0,0,,,,
6,11041,4,KJ5AXH,5.1,-79,7,3,boost,59.34,78941,2056.31,758.3,303.39,34.6,0,0,4.06,61.47,4.86,4.78,-605.47,10.99,-8.73,0.19,0.1,-0.13,11,4.06,4.08,4.08,0,4.02,1,1,4,32.9481988,-106.9092008,1848,2024,6,20,16,42,54,119,471,45,75,3.9,2.2,3.2,0,0,0,0,9,25,0,0,0,0,9,9,0,0,0,0,0,27,32,0,0,0,0,27,25,0,0,27,25,0,0,0,,,,
6,11041,4,KJ5AXH,5.41,-75,8,3,boost,59.34,78941,2056.31,758.3,303.39,34.6,0,0,4.06,61.47,4.86,4.78,-605.47,10.99,-8.73,0.19,0.1,-0.13,11,4.06,4.08,4.08,0,4.02,1,1,4,32.9480988,-106.9086077,2129,2024,6,20,16,42,55,157,754,62,78,3.9,2.2,3.2,0,0,0,0,0,24,0,0,0,0,0,0,0,0,0,0,0,27,25,0,0,0,0,27,25,0,0,27,27,0,0,0,,,,
6,11041,4,KJ5AXH,5.41,-77,5,3,boost,59.34,78941,2056.31,758.3,303.39,34.6,0,0,4.06,61.47,4.86,4.78,-605.47,10.99,-8.73,0.19,0.1,-0.13,11,4.06,4.08,4.08,0,4.02,1,1,4,32.9480988,-106.9086077,2129,2024,6,20,16,42,55,157,754,62,78,3.9,2.2,3.2,0,0,0,0,0,24,0,0,0,0,0,0,0,0,0,0,0,27,25,0,0,0,0,27,25,0,0,27,27,0,0,0,,,,
6,11041,4,KJ5AXH,5.53,-75,6,3,boost,69.4,77696,2183.98,885.97,335.38,34.6,0,0,4.06,69.78,6.49,4.56,-620.24,20.45,-10.07,0.19,-0.04,0.04,13,4.06,4.08,4.08,0,4.02,1,1,4,32.9480988,-106.9086077,2129,2024,6,20,16,42,55,157,754,62,78,3.9,2.2,3.2,0,0,0,0,0,24,0,0,0,0,0,0,0,0,0,0,0,27,25,0,0,0,0,27,25,0,0,27,27,0,0,0,,,,
6,11041,4,KJ5AXH,5.61,-74,8,3,boost,69.4,77696,2183.98,885.97,335.38,34.6,0,0,4.06,69.78,6.49,4.56,-620.24,20.45,-10.07,0.19,-0.04,0.04,13,4.07,4.08,4.08,0,4.08,1,1,4,32.9480988,-106.9086077,2129,2024,6,20,16,42,55,157,754,62,78,3.9,2.2,3.2,0,0,0,0,0,24,0,0,0,0,0,0,0,0,0,0,0,27,25,0,0,0,0,27,25,0,0,27,27,0,0,0,,,,
6,11041,4,KJ5AXH,6.12,-73,8,3,boost,69.4,77696,2183.98,885.97,335.38,34.6,0,0,4.07,69.78,6.49,4.56,-620.24,20.45,-10.07,0.19,-0.04,0.04,13,4.06,4.08,4.08,0,4.08,1,1,4,32.9480988,-106.9086077,2129,2024,6,20,16,42,55,157,754,62,78,3.9,2.2,3.2,0,0,0,0,0,24,0,0,0,0,0,0,0,0,0,0,0,27,25,0,0,0,0,27,25,0,0,27,27,0,0,0,,,,
6,11041,4,KJ5AXH,6.41,-84,5,3,boost,69.4,77696,2183.98,885.97,335.38,34.6,0,0,4.07,69.78,6.49,4.56,-620.24,20.45,-10.07,0.19,-0.04,0.04,13,4.06,4.08,4.08,0,4.08,1,1,4,32.9480988,-106.9086077,2129,2024,6,20,16,42,55,157,754,62,78,3.9,2.2,3.2,0,0,0,0,0,30,0,0,20,0,0,0,0,0,0,0,0,27,32,22,0,0,0,26,27,0,0,28,27,0,0,0,,,,
6,11041,4,KJ5AXH,6.55,-74,7,3,boost,4.02,74954,2471.11,1173.1,371.58,34.5,0,0,4.07,15.02,9.32,5.75,-736.88,12.15,-20.51,0.2,-0.01,-0.03,14,4.06,4.08,4.08,0,4.08,1,1,4,32.9480988,-106.9086077,2129,2024,6,20,16,42,55,157,754,62,78,3.9,2.2,3.2,0,0,0,0,0,30,0,0,20,0,0,0,0,0,0,0,0,27,32,22,0,0,0,26,27,0,0,28,27,0,0,0,,,,
6,11041,4,KJ5AXH,6.63,-73,13,3,boost,4.02,74954,2471.11,1173.1,371.58,34.5,0,0,4.06,15.02,9.32,5.75,-736.88,12.15,-20.51,0.2,-0.01,-0.03,14,4.07,4.08,4.08,0,4.08,1,1,4,32.9480988,-106.9086077,2129,2024,6,20,16,42,55,157,754,62,78,3.9,2.2,3.2,0,0,0,0,0,30,0,0,20,0,0,0,0,0,0,0,0,27,32,22,0,0,0,26,27,0,0,28,27,0,0,0,,,,
6,11041,4,KJ5AXH,7.06,-74,10,3,boost,-7.04,73462,2630.94,1332.93,370.69,34.5,0,0,4.06,9.56,7.46,5.79,-711.73,26.79,-14.65,0.19,0.01,-0.05,14,4.07,4.08,4.08,0,4.08,1,1,4,32.9480988,-106.9086077,2129,2024,6,20,16,42,55,157,754,62,78,3.9,2.2,3.2,0,0,0,0,0,30,0,0,20,0,0,0,0,0,0,0,0,27,32,22,0,0,0,26,27,0,0,28,27,0,0,0,,,,
6,11041,4,KJ5AXH,7.14,-73,8,3,boost,-7.04,73462,2630.94,1332.93,370.69,34.5,0,0,4.07,9.56,7.46,5.79,-711.73,26.79,-14.65,0.19,0.01,-0.05,14,4.07,4.08,4.08,0,4.08,1,1,4,32.9480988,-106.9086077,2129,2024,6,20,16,42,55,157,754,62,78,3.9,2.2,3.2,0,0,0,0,0,30,0,0,20,0,0,0,0,0,0,0,0,27,32,22,0,0,0,26,27,0,0,28,27,0,0,0,,,,
6,11041,4,KJ5AXH,7.41,-88,7,3,boost,-7.04,73462,2630.94,1332.93,370.69,34.5,0,0,4.07,9.56,7.46,5.79,-711.73,26.79,-14.65,0.19,0.01,-0.05,14,4.07,4.08,4.08,0,4.08,1,1,4,32.9478974,-106.9070938,2792,2024,6,20,16,42,57,285,1429,80,78,3.9,2.2,3.2,0,0,0,0,0,30,0,0,20,0,0,0,0,0,0,0,0,27,32,22,0,0,0,26,27,0,0,28,27,0,0,0,,,,
6,11041,4,KJ5AXH,7.41,-82,6,3,boost,-7.04,73462,2630.94,1332.93,370.69,34.5,0,0,4.07,9.56,7.46,5.79,-711.73,26.79,-14.65,0.19,0.01,-0.05,14,4.07,4.08,4.08,0,4.08,1,1,4,32.9478974,-106.9070938,2792,2024,6,20,16,42,57,285,1429,80,78,3.9,2.2,3.2,0,0,0,0,0,30,0,0,20,0,0,0,0,0,0,0,0,27,32,22,0,0,0,26,27,0,0,28,27,0,0,0,,,,
6,11041,4,KJ5AXH,7.57,-74,14,3,boost,-6.03,71978,2792.54,1494.53,367.31,34.5,0,0,4.07,5.21,7.14,5.91,-733.89,28.56,-19.65,0.19,0.05,-0.09,13,4.07,4.08,4.08,0,4.08,1,1,4,32.9478974,-106.9070938,2792,2024,6,20,16,42,57,285,1429,80,78,3.9,2.2,3.2,0,0,0,0,0,30,0,0,20,0,0,0,0,0,0,0,0,27,32,22,0,0,0,26,27,0,0,28,27,0,0,0,,,,
6,11041,4,KJ5AXH,7.65,-73,5,4,fast,-6.03,71978,2792.54,1494.53,367.31,34.5,0,0,4.06,5.21,7.14,5.91,-733.89,28.56,-19.65,0.19,0.05,-0.09,13,4.05,4.08,4.08,0,4.08,1,1,4,32.9478974,-106.9070938,2792,2024,6,20,16,42,57,285,1429,80,78,3.9,2.2,3.2,0,0,0,0,0,30,0,0,20,0,0,0,0,0,0,0,0,27,32,22,0,0,0,26,27,0,0,28,27,0,0,0,,,,
6,11041,4,KJ5AXH,8.08,-79,7,4,fast,-9.56,70380,2969.6,1671.59,363.31,34.5,0,0,4.06,2.62,5.47,6.29,-696.66,22.64,-22.71,0.19,0.09,-0.11,13,4.05,4.08,4.08,0,4.08,1,1,4,32.9478974,-106.9070938,2792,2024,6,20,16,42,57,285,1429,80,78,3.9,2.2,3.2,0,0,0,0,0,30,0,0,20,0,0,0,0,0,0,0,0,27,32,22,0,0,0,26,27,0,0,28,27,0,0,0,,,,
6,11041,4,KJ5AXH,8.17,-79,10,4,fast,-9.56,70380,2969.6,1671.59,363.31,34.5,0,0,4.06,2.62,5.47,6.29,-696.66,22.64,-22.71,0.19,0.09,-0.11,13,4.06,4.08,4.08,0,4.02,1,1,4,32.9478974,-106.9070938,2792,2024,6,20,16,42,57,285,1429,80,78,3.9,2.2,3.2,0,0,0,0,0,30,0,0,20,0,0,0,0,0,0,0,0,27,32,22,0,0,0,26,27,0,0,28,27,0,0,0,,,,
6,11041,4,KJ5AXH,8.41,-83,9,4,fast,-9.56,70380,2969.6,1671.59,363.31,34.5,0,0,4.06,2.62,5.47,6.29,-696.66,22.64,-22.71,0.19,0.09,-0.11,13,4.06,4.08,4.08,0,4.02,1,1,6,32.9477293,-106.9062667,3143,2024,6,20,16,42,58,359,1787,85,78,2.2,1.3,1.8,0,0,0,0,27,31,0,0,30,0,25,19,0,0,0,0,0,27,32,20,0,0,0,27,27,0,0,27,28,0,0,0,,,,
6,11041,4,KJ5AXH,8.41,-84,6,4,fast,-9.56,70380,2969.6,1671.59,363.31,34.5,0,0,4.06,2.62,5.47,6.29,-696.66,22.64,-22.71,0.19,0.09,-0.11,13,4.06,4.08,4.08,0,4.02,1,1,6,32.9477293,-106.9062667,3143,2024,6,20,16,42,58,359,1787,85,78,2.2,1.3,1.8,0,0,0,0,27,31,0,0,30,0,25,19,0,0,0,0,0,27,32,20,0,0,0,27,27,0,0,27,28,0,0,0,,,,
6,11041,4,KJ5AXH,8.59,-79,7,4,fast,-10.56,68857,3141.4,1843.39,358.18,34.5,0,0,4.06,0.42,4.9,7.87,-720.52,23.86,-16.24,0.19,0.11,-0.12,13,4.06,4.08,4.08,0,4.02,1,1,6,32.9477293,-106.9062667,3143,2024,6,20,16,42,58,359,1787,85,78,2.2,1.3,1.8,0,0,0,0,27,31,0,0,30,0,25,19,0,0,0,0,0,27,32,20,0,0,0,27,27,0,0,27,28,0,0,0,,,,
6,11041,4,KJ5AXH,8.67,-79,11,4,fast,-10.56,68857,3141.4,1843.39,358.18,34.5,0,0,4.07,0.42,4.9,7.87,-720.52,23.86,-16.24,0.19,0.11,-0.12,13,4.06,4.08,4.08,0,4.08,1,1,6,32.9477293,-106.9062667,3143,2024,6,20,16,42,58,359,1787,85,78,2.2,1.3,1.8,0,0,0,0,27,31,0,0,30,0,25,19,0,0,0,0,0,27,32,20,0,0,0,27,27,0,0,27,28,0,0,0,,,,
6,11041,4,KJ5AXH,9.1,-79,6,4,fast,-16.6,67276,3323.04,2025.03,351.31,34.5,0,0,4.07,-0.99,5.2,5.94,-681.76,29.54,-13.37,0.19,0.09,-0.12,14,4.06,4.08,4.08,0,4.08,1,1,6,32.9477293,-106.9062667,3143,2024,6,20,16,42,58,359,1787,85,78,2.2,1.3,1.8,0,0,0,0,27,31,0,0,30,0,25,19,0,0,0,0,0,27,32,20,0,0,0,27,27,0,0,27,28,0,0,0,,,,
6,11041,4,KJ5AXH,9.18,-78,7,4,fast,-16.6,67276,3323.04,2025.03,351.31,34.5,0,0,4.07,-0.99,5.2,5.94,-681.76,29.54,-13.37,0.19,0.09,-0.12,14,4.06,4.08,4.08,0,4.08,1,1,6,32.9477293,-106.9062667,3143,2024,6,20,16,42,58,359,1787,85,78,2.2,1.3,1.8,0,0,0,0,27,31,0,0,30,0,25,19,0,0,0,0,0,27,32,20,0,0,0,27,27,0,0,27,28,0,0,0,,,,
6,11041,4,KJ5AXH,9.41,-79,11,4,fast,-16.6,67276,3323.04,2025.03,351.31,34.5,0,0,4.07,-0.99,5.2,5.94,-681.76,29.54,-13.37,0.19,0.09,-0.12,14,4.06,4.08,4.08,0,4.08,1,1,8,32.9475352,-106.9053999,3506,2024,6,20,16,42,59,438,2159,89,78,1.9,1.2,1.5,0,0,0,0,26,31,0,0,24,0,25,26,0,0,0,0,0,27,28,19,0,0,0,27,28,0,0,28,27,0,0,0,,,,
6,11041,4,KJ5AXH,9.41,-84,7,4,fast,-16.6,67276,3323.04,2025.03,351.31,34.5,0,0,4.07,-0.99,5.2,5.94,-681.76,29.54,-13.37,0.19,0.09,-0.12,14,4.06,4.08,4.08,0,4.08,1,1,8,32.9475352,-106.9053999,3506,2024,6,20,16,42,59,438,2159,89,78,1.9,1.2,1.5,0,0,0,0,26,31,0,0,24,0,25,26,0,0,0,0,0,27,28,19,0,0,0,27,28,0,0,28,27,0,0,0,,,,
6,11041,4,KJ5AXH,9.61,-78,9,4,fast,-16.6,66395,3425.76,2127.75,342.95,34.4,0,0,4.07,-1.21,4.39,8.31,-702.51,24.05,-19.84,0.19,0.09,-0.12,14,4.06,4.08,4.08,0,4.08,1,1,8,32.9475352,-106.9053999,3506,2024,6,20,16,42,59,438,2159,89,78,1.9,1.2,1.5,0,0,0,0,26,31,0,0,24,0,25,26,0,0,0,0,0,27,28,19,0,0,0,27,28,0,0,28,27,0,0,0,,,,
6,11041,4,KJ5AXH,9.69,-78,8,4,fast,-16.6,66395,3425.76,2127.75,342.95,34.4,0,0,4.07,-1.21,4.39,8.31,-702.51,24.05,-19.84,0.19,0.09,-0.12,14,4.07,4.08,4.08,0,4.02,1,1,8,32.9475352,-106.9053999,3506,2024,6,20,16,42,59,438,2159,89,78,1.9,1.2,1.5,0,0,0,0,26,31,0,0,24,0,25,26,0,0,0,0,0,27,28,19,0,0,0,27,28,0,0,28,27,0,0,0,,,,
6,11041,4,KJ5AXH,10.12,-78,10,4,fast,-15.59,65029,3587.23,2289.22,334.84,34.5,0,0,4.07,-1.53,5.27,3.92,-676.33,20.81,-17.15,0.19,0.07,-0.11,14,4.07,4.08,4.08,0,4.02,1,1,8,32.9475352,-106.9053999,3506,2024,6,20,16,42,59,438,2159,89,78,1.9,1.2,1.5,0,0,0,0,26,31,0,0,24,0,25,26,0,0,0,0,0,27,28,19,0,0,0,27,28,0,0,28,27,0,0,0,,,,
6,11041,4,KJ5AXH,10.2,-78,7,4,fast,-15.59,65029,3587.23,2289.22,334.84,34.5,0,0,4.06,-1.53,5.27,3.92,-676.33,20.81,-17.15,0.19,0.07,-0.11,14,4.06,4.08,4.08,0,4.08,1,1,8,32.9475352,-106.9053999,3506,2024,6,20,16,42,59,438,2159,89,78,1.9,1.2,1.5,0,0,0,0,26,31,0,0,24,0,25,26,0,0,0,0,0,27,28,19,0,0,0,27,28,0,0,28,27,0,0,0,,,,
6,11041,4,KJ5AXH,10.2,-81,7,4,fast,-15.59,65029,3587.23,2289.22,334.84,34.5,0,0,4.06,-1.53,5.27,3.92,-676.33,20.81,-17.15,0.19,0.07,-0.11,14,4.06,4.08,4.08,0,4.08,1,1,8,32.9475352,-106.9053999,3506,2024,6,20,16,42,59,438,2159,89,78,1.9,1.2,1.5,0,0,0,0,26,31,0,0,24,0,25,26,0,0,0,0,0,27,28,19,0,0,0,27,28,0,0,28,27,0,0,0,,,,
6,11041,4,KJ5AXH,10.41,-81,7,4,fast,-15.59,65029,3587.23,2289.22,334.84,34.5,0,0,4.06,-1.53,5.27,3.92,-676.33,20.81,-17.15,0.19,0.07,-0.11,14,4.06,4.08,4.08,0,4.08,1,1,8,32.9473721,-106.9045402,3852,2024,6,20,16,43,0,519,2514,91,78,1.9,1.2,1.5,0,0,0,0,25,31,0,0,30,0,25,26,0,0,0,0,0,27,27,19,0,0,0,27,28,0,0,28,28,0,0,0,,,,
6,11041,4,KJ5AXH,10.41,-78,16,4,fast,-15.59,65029,3587.23,2289.22,334.84,34.5,0,0,4.06,-1.53,5.27,3.92,-676.33,20.81,-17.15,0.19,0.07,-0.11,14,4.06,4.08,4.08,0,4.08,1,1,8,32.9473721,-106.9045402,3852,2024,6,20,16,43,0,519,2514,91,78,1.9,1.2,1.5,0,0,0,0,25,31,0,0,30,0,25,26,0,0,0,0,0,27,27,19,0,0,0,27,28,0,0,28,28,0,0,0,,,,
6,11041,4,KJ5AXH,10.63,-79,9,4,fast,-12.07,63692,3747.95,2449.94,327.85,34.4,0,0,4.06,-2.12,2.89,4.35,-645.57,21.3,-18.68,0.19,0.01,-0.06,15,4.06,4.08,4.08,0,4.08,1,1,8,32.9473721,-106.9045402,3852,2024,6,20,16,43,0,519,2514,91,78,1.9,1.2,1.5,0,0,0,0,25,31,0,0,30,0,25,26,0,0,0,0,0,27,27,19,0,0,0,27,28,0,0,28,28,0,0,0,,,,
6,11041,4,KJ5AXH,10.71,-80,10,4,fast,-12.07,63692,3747.95,2449.94,327.85,34.4,0,0,4.07,-2.12,2.89,4.35,-645.57,21.3,-18.68,0.19,0.01,-0.06,15,4.06,4.08,4.08,0,4.02,1,1,8,32.9473721,-106.9045402,3852,2024,6,20,16,43,0,519,2514,91,78,1.9,1.2,1.5,0,0,0,0,25,31,0,0,30,0,25,26,0,0,0,0,0,27,27,19,0,0,0,27,28,0,0,28,28,0,0,0,,,,
6,11041,4,KJ5AXH,11.14,-81,9,4,fast,-13.58,62447,3900.09,2602.08,321.37,34.4,0,0,4.07,-2.5,4.38,3.66,-599.43,19.23,-17.46,0.19,-0.05,0.13,17,4.06,4.08,4.08,0,4.02,1,1,8,32.9473721,-106.9045402,3852,2024,6,20,16,43,0,519,2514,91,78,1.9,1.2,1.5,0,0,0,0,25,31,0,0,30,0,25,26,0,0,0,0,0,27,27,19,0,0,0,27,28,0,0,28,28,0,0,0,,,,
6,11041,4,KJ5AXH,11.22,-80,8,4,fast,-13.58,62447,3900.09,2602.08,321.37,34.4,0,0,4.06,-2.5,4.38,3.66,-599.43,19.23,-17.46,0.19,-0.05,0.13,17,4.06,4.08,4.08,0,4.02,1,1,8,32.9473721,-106.9045402,3852,2024,6,20,16,43,0,519,2514,91,78,1.9,1.2,1.5,0,0,0,0,25,31,0,0,30,0,25,26,0,0,0,0,0,27,27,19,0,0,0,27,28,0,0,28,28,0,0,0,,,,
6,11041,4,KJ5AXH,11.65,-79,8,4,fast,-16.6,61250,4048.7,2750.69,313.79,34.4,0,0,4.06,-2.79,4.91,1.21,-573.67,21.97,-16.78,0.18,0.08,0.32,17,4.06,4.08,4.08,0,4.02,1,1,8,32.9473721,-106.9045402,3852,2024,6,20,16,43,0,519,2514,91,78,1.9,1.2,1.5,0,0,0,0,25,31,0,0,30,0,25,26,0,0,0,0,0,27,27,19,0,0,0,27,28,0,0,28,28,0,0,0,,,,
6,11041,4,KJ5AXH,11.73,-81,10,4,fast,-16.6,61250,4048.7,2750.69,313.79,34.4,0,0,4.07,-2.79,4.91,1.21,-573.67,21.97,-16.78,0.18,0.08,0.32,17,4.06,4.08,4.08,0,4.08,1,1,8,32.9473721,-106.9045402,3852,2024,6,20,16,43,0,519,2514,91,78,1.9,1.2,1.5,0,0,0,0,25,31,0,0,30,0,25,26,0,0,0,0,0,27,27,19,0,0,0,27,28,0,0,28,28,0,0,0,,,,
6,11041,4,KJ5AXH,12.16,-86,7,4,fast,-11.57,60121,4191.04,2893.03,306.7,34.4,0,0,4.07,-3.13,4.22,2,-546.39,18.43,-15.32,0.18,0.39,0.24,15,4.06,4.08,4.08,0,4.08,1,1,8,32.9473721,-106.9045402,3852,2024,6,20,16,43,0,519,2514,91,78,1.9,1.2,1.5,0,0,0,0,25,31,0,0,30,0,25,26,0,0,0,0,0,27,27,19,0,0,0,27,28,0,0,28,28,0,0,0,,,,
6,11041,4,KJ5AXH,12.24,-81,8,4,fast,-11.57,60121,4191.04,2893.03,306.7,34.4,0,0,4.06,-3.13,4.22,2,-546.39,18.43,-15.32,0.18,0.39,0.24,15,4.06,4.08,4.08,0,4.08,1,1,8,32.9473721,-106.9045402,3852,2024,6,20,16,43,0,519,2514,91,78,1.9,1.2,1.5,0,0,0,0,25,31,0,0,30,0,25,26,0,0,0,0,0,27,27,19,0,0,0,27,28,0,0,28,28,0,0,0,,,,
6,11041,4,KJ5AXH,12.41,-85,8,4,fast,-11.57,60121,4191.04,2893.03,306.7,34.4,0,0,4.06,-3.13,4.22,2,-546.39,18.43,-15.32,0.18,0.39,0.24,15,4.06,4.08,4.08,0,4.08,1,1,8,32.947077,-106.9028646,4495,2024,6,20,16,43,2,676,3176,93,78,1.9,1.2,1.5,0,0,0,0,25,26,0,0,22,0,25,26,0,0,0,0,0,27,28,20,0,0,0,27,29,0,0,28,35,0,0,0,,,,
6,11041,4,KJ5AXH,12.41,-81,10,4,fast,-11.57,60121,4191.04,2893.03,306.7,34.4,0,0,4.06,-3.13,4.22,2,-546.39,18.43,-15.32,0.18,0.39,0.24,15,4.06,4.08,4.08,0,4.08,1,1,8,32.947077,-106.9028646,4495,2024,6,20,16,43,2,676,3176,93,78,1.9,1.2,1.5,0,0,0,0,25,26,0,0,22,0,25,26,0,0,0,0,0,27,28,20,0,0,0,27,29,0,0,28,35,0,0,0,,,,
6,11041,4,KJ5AXH,12.67,-80,7,4,fast,-16.09,59031,4330.53,3032.52,299.7,34.4,0,0,4.06,-3.54,5.1,1.19,-547.42,16.91,-15.93,0.18,0.38,-0.05,12,4.06,4.08,4.08,0,4.08,1,1,8,32.947077,-106.9028646,4495,2024,6,20,16,43,2,676,3176,93,78,1.9,1.2,1.5,0,0,0,0,25,26,0,0,22,0,25,26,0,0,0,0,0,27,28,20,0,0,0,27,29,0,0,28,35,0,0,0,,,,
6,11041,4,KJ5AXH,12.75,-85,7,4,fast,-16.09,59031,4330.53,3032.52,299.7,34.4,0,0,4.07,-3.54,5.1,1.19,-547.42,16.91,-15.93,0.18,0.38,-0.05,12,4.06,4.08,4.08,0,4.08,1,1,8,32.947077,-106.9028646,4495,2024,6,20,16,43,2,676,3176,93,78,1.9,1.2,1.5,0,0,0,0,25,26,0,0,22,0,25,26,0,0,0,0,0,27,28,20,0,0,0,27,29,0,0,28,35,0,0,0,,,,
6,11041,4,KJ5AXH,13.18,-80,10,4,fast,-12.57,57946,4471.47,3173.46,292.45,34.4,0,0,4.07,-3.74,3.07,2.57,-546.14,16.36,-18.62,0.19,0.08,-0.11,15,4.06,4.08,4.08,0,4.08,1,1,8,32.947077,-106.9028646,4495,2024,6,20,16,43,2,676,3176,93,78,1.9,1.2,1.5,0,0,0,0,25,26,0,0,22,0,25,26,0,0,0,0,0,27,28,20,0,0,0,27,29,0,0,28,35,0,0,0,,,,
6,11041,4,KJ5AXH,13.26,-78,7,4,fast,-12.57,57946,4471.47,3173.46,292.45,34.4,0,0,4.06,-3.74,3.07,2.57,-546.14,16.36,-18.62,0.19,0.08,-0.11,15,4.06,4.08,4.08,0,4.26,1,1,8,32.947077,-106.9028646,4495,2024,6,20,16,43,2,676,3176,93,78,1.9,1.2,1.5,0,0,0,0,25,26,0,0,22,0,25,26,0,0,0,0,0,27,28,20,0,0,0,27,29,0,0,28,35,0,0,0,,,,
6,11041,4,KJ5AXH,13.41,-80,6,4,fast,-12.57,57946,4471.47,3173.46,292.45,34.4,0,0,4.06,-3.74,3.07,2.57,-546.14,16.36,-18.62,0.19,0.08,-0.11,15,4.06,4.08,4.08,0,4.26,1,1,8,32.946949,-106.9020587,4790,2024,6,20,16,43,3,752,3480,94,78,1.9,1.2,1.5,0,0,0,0,26,27,0,0,30,0,25,24,0,0,0,0,0,27,32,18,0,0,0,27,28,0,0,28,30,0,0,0,,,,
6,11041,4,KJ5AXH,13.41,-79,9,4,fast,-12.57,57946,4471.47,3173.46,292.45,34.4,0,0,4.06,-3.74,3.07,2.57,-546.14,16.36,-18.62,0.19,0.08,-0.11,15,4.06,4.08,4.08,0,4.26,1,1,8,32.946949,-106.9020587,4790,2024,6,20,16,43,3,752,3480,94,78,1.9,1.2,1.5,0,0,0,0,26,27,0,0,30,0,25,24,0,0,0,0,0,27,32,18,0,0,0,27,28,0,0,28,30,0,0,0,,,,
6,11041,4,KJ5AXH,13.69,-82,9,4,fast,-17.1,56880,4612.03,3314.02,285,34.4,0,0,4.06,-3.84,4.24,1.52,-501.22,12.39,-20.39,0.18,-0.03,0.23,18,4.06,4.08,4.08,0,4.26,1,1,8,32.946949,-106.9020587,4790,2024,6,20,16,43,3,752,3480,94,78,1.9,1.2,1.5,0,0,0,0,26,27,0,0,30,0,25,24,0,0,0,0,0,27,32,18,0,0,0,27,28,0,0,28,30,0,0,0,,,,
6,11041,4,KJ5AXH,13.78,-83,7,4,fast,-17.1,56880,4612.03,3314.02,285,34.4,0,0,4.07,-3.84,4.24,1.52,-501.22,12.39,-20.39,0.18,-0.03,0.23,18,4.06,4.08,4.08,0,4.08,1,1,8,32.946949,-106.9020587,4790,2024,6,20,16,43,3,752,3480,94,78,1.9,1.2,1.5,0,0,0,0,26,27,0,0,30,0,25,24,0,0,0,0,0,27,32,18,0,0,0,27,28,0,0,28,30,0,0,0,,,,
6,11041,4,KJ5AXH,14.2,-86,7,4,fast,-14.58,55907,4742.21,3444.2,277.05,34.4,0,0,4.07,-3.88,3.47,0.04,-460.94,11.29,-20.14,0.18,0.38,0.25,14,4.06,4.08,4.08,0,4.08,1,1,8,32.946949,-106.9020587,4790,2024,6,20,16,43,3,752,3480,94,78,1.9,1.2,1.5,0,0,0,0,26,27,0,0,30,0,25,24,0,0,0,0,0,27,32,18,0,0,0,27,28,0,0,28,30,0,0,0,,,,
6,11041,4,KJ5AXH,14.28,-82,8,4,fast,-14.58,55907,4742.21,3444.2,277.05,34.4,0,0,4.06,-3.88,3.47,0.04,-460.94,11.29,-20.14,0.18,0.38,0.25,14,4.06,4.08,4.08,0,4.08,1,1,8,32.946949,-106.9020587,4790,2024,6,20,16,43,3,752,3480,94,78,1.9,1.2,1.5,0,0,0,0,26,27,0,0,30,0,25,24,0,0,0,0,0,27,32,18,0,0,0,27,28,0,0,28,30,0,0,0,,,,
6,11041,4,KJ5AXH,14.41,-81,7,4,fast,-14.58,55907,4742.21,3444.2,277.05,34.4,0,0,4.06,-3.88,3.47,0.04,-460.94,11.29,-20.14,0.18,0.38,0.25,14,4.06,4.08,4.08,0,4.08,1,1,7,32.9468414,-106.9012585,5070,2024,6,20,16,43,4,827,3770,95,77,2,1.2,1.5,0,0,0,0,24,26,0,0,25,0,24,22,0,0,0,0,0,27,27,19,0,0,0,26,29,0,0,28,34,0,0,0,,,,
6,11041,4,KJ5AXH,14.41,-86,8,4,fast,-14.58,55907,4742.21,3444.2,277.05,34.4,0,0,4.06,-3.88,3.47,0.04,-460.94,11.29,-20.14,0.18,0.38,0.25,14,4.06,4.08,4.08,0,4.08,1,1,7,32.9468414,-106.9012585,5070,2024,6,20,16,43,4,827,3770,95,77,2,1.2,1.5,0,0,0,0,24,26,0,0,25,0,24,22,0,0,0,0,0,27,27,19,0,0,0,26,29,0,0,28,34,0,0,0,,,,
6,11041,4,KJ5AXH,14.71,-79,6,4,fast,-13.58,54967,4869.72,3571.71,269.93,34.4,0,0,4.06,-3.81,3.1,0.85,-442.02,10.31,-16.85,0.19,0.17,-0.14,15,4.06,4.08,4.08,0,4.08,1,1,7,32.9468414,-106.9012585,5070,2024,6,20,16,43,4,827,3770,95,77,2,1.2,1.5,0,0,0,0,24,26,0,0,25,0,24,22,0,0,0,0,0,27,27,19,0,0,0,26,29,0,0,28,34,0,0,0,,,,
6,11041,4,KJ5AXH,14.79,-79,7,5,coast,-13.58,54967,4869.72,3571.71,269.93,34.4,0,0,4.07,-3.81,3.1,0.85,-442.02,10.31,-16.85,0.19,0.17,-0.14,15,4.06,4.08,4.08,0,4.02,1,1,7,32.9468414,-106.9012585,5070,2024,6,20,16,43,4,827,3770,95,77,2,1.2,1.5,0,0,0,0,24,26,0,0,25,0,24,22,0,0,0,0,0,27,27,19,0,0,0,26,29,0,0,28,34,0,0,0,,,,
6,11041,4,KJ5AXH,15.22,-82,7,5,coast,-15.59,54099,4989.05,3691.04,262.59,34.4,0,0,4.07,-3.81,2.92,0.73,-424.13,8.73,-15.69,0.18,0.03,0.3,17,4.06,4.08,4.08,0,4.02,1,1,7,32.9468414,-106.9012585,5070,2024,6,20,16,43,4,827,3770,95,77,2,1.2,1.5,0,0,0,0,24,26,0,0,25,0,24,22,0,0,0,0,0,27,27,19,0,0,0,26,29,0,0,28,34,0,0,0,,,,
6,11041,4,KJ5AXH,15.3,-83,7,5,coast,-15.59,54099,4989.05,3691.04,262.59,34.4,0,0,4.07,-3.81,2.92,0.73,-424.13,8.73,-15.69,0.18,0.03,0.3,17,4.05,4.08,4.08,0,4.02,1,1,7,32.9468414,-106.9012585,5070,2024,6,20,16,43,4,827,3770,95,77,2,1.2,1.5,0,0,0,0,24,26,0,0,25,0,24,22,0,0,0,0,0,27,27,19,0,0,0,26,29,0,0,28,34,0,0,0,,,,
6,11041,4,KJ5AXH,15.3,-85,7,5,coast,-15.59,54099,4989.05,3691.04,262.59,34.4,0,0,4.07,-3.81,2.92,0.73,-424.13,8.73,-15.69,0.18,0.03,0.3,17,4.05,4.08,4.08,0,4.02,1,1,7,32.9468414,-106.9012585,5070,2024,6,20,16,43,4,827,3770,95,77,2,1.2,1.5,0,0,0,0,24,26,0,0,25,0,24,22,0,0,0,0,0,27,27,19,0,0,0,26,29,0,0,28,34,0,0,0,,,,
6,11041,4,KJ5AXH,15.41,-87,8,5,coast,-15.59,54099,4989.05,3691.04,262.59,34.4,0,0,4.07,-3.81,2.92,0.73,-424.13,8.73,-15.69,0.18,0.03,0.3,17,4.05,4.08,4.08,0,4.02,1,1,8,32.9467071,-106.9004828,5339,2024,6,20,16,43,5,901,4049,95,77,1.9,1.2,1.5,0,0,0,0,25,31,0,0,26,0,23,20,0,0,0,0,0,28,33,19,0,0,0,27,28,0,0,28,24,0,0,0,,,,
6,11041,4,KJ5AXH,15.41,-84,5,5,coast,-15.59,54099,4989.05,3691.04,262.59,34.4,0,0,4.07,-3.81,2.92,0.73,-424.13,8.73,-15.69,0.18,0.03,0.3,17,4.05,4.08,4.08,0,4.02,1,1,8,32.9467071,-106.9004828,5339,2024,6,20,16,43,5,901,4049,95,77,1.9,1.2,1.5,0,0,0,0,25,31,0,0,26,0,23,20,0,0,0,0,0,28,33,19,0,0,0,27,28,0,0,28,24,0,0,0,,,,
6,11041,4,KJ5AXH,15.73,-83,7,5,coast,-14.58,53235,5109.38,3811.36,254.99,34.4,0,0,4.07,-3.71,2,0.93,-415.41,8.18,-15.32,0.18,0.43,0.03,13,4.05,4.08,4.08,0,4.02,1,1,8,32.9467071,-106.9004828,5339,2024,6,20,16,43,5,901,4049,95,77,1.9,1.2,1.5,0,0,0,0,25,31,0,0,26,0,23,20,0,0,0,0,0,28,33,19,0,0,0,27,28,0,0,28,24,0,0,0,,,,
6,11041,4,KJ5AXH,15.81,-87,8,5,coast,-14.58,53235,5109.38,3811.36,254.99,34.4,0,0,4.07,-3.71,2,0.93,-415.41,8.18,-15.32,0.18,0.43,0.03,13,4.06,4.08,4.08,0,4.08,1,1,8,32.9467071,-106.9004828,5339,2024,6,20,16,43,5,901,4049,95,77,1.9,1.2,1.5,0,0,0,0,25,31,0,0,26,0,23,20,0,0,0,0,0,28,33,19,0,0,0,27,28,0,0,28,24,0,0,0,,,,
6,11041,4,KJ5AXH,16.24,-84,7,5,coast,-13.08,52387,5229.02,3931.01,248.01,34.4,0,0,4.07,-3.53,1.93,1.11,-400.7,5.92,-13.61,0.18,-0.06,0.06,17,4.06,4.08,4.08,0,4.08,1,1,8,32.9467071,-106.9004828,5339,2024,6,20,16,43,5,901,4049,95,77,1.9,1.2,1.5,0,0,0,0,25,31,0,0,26,0,23,20,0,0,0,0,0,28,33,19,0,0,0,27,28,0,0,28,24,0,0,0,,,,
6,11041,4,KJ5AXH,16.32,-82,7,5,coast,-13.08,52387,5229.02,3931.01,248.01,34.4,0,0,4.06,-3.53,1.93,1.11,-400.7,5.92,-13.61,0.18,-0.06,0.06,17,4.06,4.08,4.08,0,4.08,1,1,8,32.9467071,-106.9004828,5339,2024,6,20,16,43,5,901,4049,95,77,1.9,1.2,1.5,0,0,0,0,25,31,0,0,26,0,23,20,0,0,0,0,0,28,33,19,0,0,0,27,28,0,0,28,24,0,0,0,,,,
6,11041,4,KJ5AXH,16.41,-81,7,5,coast,-13.08,52387,5229.02,3931.01,248.01,34.4,0,0,4.06,-3.53,1.93,1.11,-400.7,5.92,-13.61,0.18,-0.06,0.06,17,4.06,4.08,4.08,0,4.08,1,1,7,32.9466123,-106.8997173,5588,2024,6,20,16,43,6,973,4307,95,77,2.1,1.5,1.5,0,0,0,0,31,27,0,0,26,0,22,29,0,0,0,0,0,28,27,18,0,0,0,27,28,0,0,28,31,0,0,0,,,,
6,11041,4,KJ5AXH,16.41,-81,7,5,coast,-13.08,52387,5229.02,3931.01,248.01,34.4,0,0,4.06,-3.53,1.93,1.11,-400.7,5.92,-13.61,0.18,-0.06,0.06,17,4.06,4.08,4.08,0,4.08,1,1,7,32.9466123,-106.8997173,5588,2024,6,20,16,43,6,973,4307,95,77,2.1,1.5,1.5,0,0,0,0,31,27,0,0,26,0,22,29,0,0,0,0,0,28,27,18,0,0,0,27,28,0,0,28,31,0,0,0,,,,
6,11041,4,KJ5AXH,16.75,-86,6,5,coast,-13.08,51587,5343.34,4045.33,241.4,34.4,0,0,4.06,-3.33,1.82,0.62,-385.68,5.49,-14.16,0.18,0.39,0.24,14,4.06,4.08,4.08,0,4.08,1,1,7,32.9466123,-106.8997173,5588,2024,6,20,16,43,6,973,4307,95,77,2.1,1.5,1.5,0,0,0,0,31,27,0,0,26,0,22,29,0,0,0,0,0,28,27,18,0,0,0,27,28,0,0,28,31,0,0,0,,,,
6,11041,4,KJ5AXH,16.83,-84,8,5,coast,-13.08,51587,5343.34,4045.33,241.4,34.4,0,0,4.06,-3.33,1.82,0.62,-385.68,5.49,-14.16,0.18,0.39,0.24,14,4.07,4.08,4.08,0,4.08,1,1,7,32.9466123,-106.8997173,5588,2024,6,20,16,43,6,973,4307,95,77,2.1,1.5,1.5,0,0,0,0,31,27,0,0,26,0,22,29,0,0,0,0,0,28,27,18,0,0,0,27,28,0,0,28,31,0,0,0,,,,
6,11041,4,KJ5AXH,17.26,-82,6,5,coast,-15.09,50832,5452.55,4154.54,234.3,34.4,0,0,4.06,-3.16,1.34,0.52,-368.53,3.54,-12.39,0.18,0.01,-0.07,17,4.07,4.08,4.08,0,4.08,1,1,7,32.9466123,-106.8997173,5588,2024,6,20,16,43,6,973,4307,95,77,2.1,1.5,1.5,0,0,0,0,31,27,0,0,26,0,22,29,0,0,0,0,0,28,27,18,0,0,0,27,28,0,0,28,31,0,0,0,,,,
6,11041,4,KJ5AXH,17.34,-79,5,5,coast,-15.09,50832,5452.55,4154.54,234.3,34.4,0,0,4.07,-3.16,1.34,0.52,-368.53,3.54,-12.39,0.18,0.01,-0.07,17,4.05,4.08,4.08,0,4.08,1,1,7,32.9466123,-106.8997173,5588,2024,6,20,16,43,6,973,4307,95,77,2.1,1.5,1.5,0,0,0,0,31,27,0,0,26,0,22,29,0,0,0,0,0,28,27,18,0,0,0,27,28,0,0,28,31,0,0,0,,,,
6,11041,4,KJ5AXH,17.41,-81,7,5,coast,-15.09,50832,5452.55,4154.54,234.3,34.4,0,0,4.07,-3.16,1.34,0.52,-368.53,3.54,-12.39,0.18,0.01,-0.07,17,4.05,4.08,4.08,0,4.08,1,1,7,32.9465234,-106.898961,5822,2024,6,20,16,43,7,1044,4551,96,77,2.1,1.5,1.5,0,0,0,0,26,27,0,0,26,0,23,29,0,0,0,0,0,27,28,17,0,0,0,27,28,0,0,28,31,0,0,0,,,,
6,11041,4,KJ5AXH,17.41,-81,7,5,coast,-15.09,50832,5452.55,4154.54,234.3,34.4,0,0,4.07,-3.16,1.34,0.52,-368.53,3.54,-12.39,0.18,0.01,-0.07,17,4.05,4.08,4.08,0,4.08,1,1,7,32.9465234,-106.898961,5822,2024,6,20,16,43,7,1044,4551,96,77,2.1,1.5,1.5,0,0,0,0,26,27,0,0,26,0,23,29,0,0,0,0,0,27,28,17,0,0,0,27,28,0,0,28,31,0,0,0,,,,
6,11041,4,KJ5AXH,17.77,-86,13,5,coast,-14.58,50098,5559.99,4261.98,226.83,34.4,0,0,4.07,-3.15,1.42,0.48,-354.37,2.81,-9.52,0.18,0.35,0.28,14,4.05,4.08,4.08,0,4.08,1,1,7,32.9465234,-106.898961,5822,2024,6,20,16,43,7,1044,4551,96,77,2.1,1.5,1.5,0,0,0,0,26,27,0,0,26,0,23,29,0,0,0,0,0,27,28,17,0,0,0,27,28,0,0,28,31,0,0,0,,,,
6,11041,4,KJ5AXH,17.85,-83,7,5,coast,-14.58,50098,5559.99,4261.98,226.83,34.4,0,0,4.07,-3.15,1.42,0.48,-354.37,2.81,-9.52,0.18,0.35,0.28,14,4.06,4.08,4.08,0,4.08,1,1,7,32.9465234,-106.898961,5822,2024,6,20,16,43,7,1044,4551,96,77,2.1,1.5,1.5,0,0,0,0,26,27,0,0,26,0,23,29,0,0,0,0,0,27,28,17,0,0,0,27,28,0,0,28,31,0,0,0,,,,
6,11041,4,KJ5AXH,18.28,-82,7,5,coast,-12.57,49392,5664.55,4366.54,219.97,34.4,0,0,4.07,-2.97,1.15,0.72,-345.52,1.1,-8.24,0.19,0.01,-0.07,17,4.06,4.08,4.08,0,4.08,1,1,7,32.9465234,-106.898961,5822,2024,6,20,16,43,7,1044,4551,96,77,2.1,1.5,1.5,0,0,0,0,26,27,0,0,26,0,23,29,0,0,0,0,0,27,28,17,0,0,0,27,28,0,0,28,31,0,0,0,,,,
6,11041,4,KJ5AXH,18.36,-80,10,5,coast,-12.57,49392,5664.55,4366.54,219.97,34.4,0,0,4.06,-2.97,1.15,0.72,-345.52,1.1,-8.24,0.19,0.01,-0.07,17,4.06,4.08,4.08,0,4.02,1,1,7,32.9465234,-106.898961,5822,2024,6,20,16,43,7,1044,4551,96,77,2.1,1.5,1.5,0,0,0,0,26,27,0,0,26,0,23,29,0,0,0,0,0,27,28,17,0,0,0,27,28,0,0,28,31,0,0,0,,,,
6,11041,4,KJ5AXH,18.41,-84,6,5,coast,-12.57,49392,5664.55,4366.54,219.97,34.4,0,0,4.06,-2.97,1.15,0.72,-345.52,1.1,-8.24,0.19,0.01,-0.07,17,4.06,4.08,4.08,0,4.02,1,1,7,32.9464306,-106.898216,6044,2024,6,20,16,43,8,1114,4784,96,77,2.1,1.5,1.5,0,0,0,0,26,27,0,0,26,0,24,23,0,0,0,0,0,27,28,18,0,0,0,27,28,0,0,28,35,0,0,0,,,,
6,11041,4,KJ5AXH,18.41,-82,8,5,coast,-12.57,49392,5664.55,4366.54,219.97,34.4,0,0,4.06,-2.97,1.15,0.72,-345.52,1.1,-8.24,0.19,0.01,-0.07,17,4.06,4.08,4.08,0,4.02,1,1,7,32.9464306,-106.898216,6044,2024,6,20,16,43,8,1114,4784,96,77,2.1,1.5,1.5,0,0,0,0,26,27,0,0,26,0,24,23,0,0,0,0,0,27,28,18,0,0,0,27,28,0,0,28,35,0,0,0,,,,
6,11041,4,KJ5AXH,18.79,-88,6,5,coast,-13.58,48720,5765.2,4467.18,213.37,34.4,0,0,4.06,-2.92,1.05,0.43,-328.43,3.3,-12.21,0.18,0.38,0.25,15,4.06,4.08,4.08,0,4.02,1,1,7,32.9464306,-106.898216,6044,2024,6,20,16,43,8,1114,4784,96,77,2.1,1.5,1.5,0,0,0,0,26,27,0,0,26,0,24,23,0,0,0,0,0,27,28,18,0,0,0,27,28,0,0,28,35,0,0,0,,,,
6,11041,4,KJ5AXH,18.87,-85,10,5,coast,-13.58,48720,5765.2,4467.18,213.37,34.4,0,0,4.06,-2.92,1.05,0.43,-328.43,3.3,-12.21,0.18,0.38,0.25,15,4.07,4.08,4.08,0,4.26,1,1,7,32.9464306,-106.898216,6044,2024,6,20,16,43,8,1114,4784,96,77,2.1,1.5,1.5,0,0,0,0,26,27,0,0,26,0,24,23,0,0,0,0,0,27,28,18,0,0,0,27,28,0,0,28,35,0,0,0,,,,
6,11041,4,KJ5AXH,19.3,-85,7,5,coast,-11.06,48085,5861.34,4563.33,207.13,34.4,0,0,4.06,-2.69,0.99,0.55,-316.28,1.28,-8.42,0.17,-0.06,0.02,19,4.07,4.08,4.08,0,4.26,1,1,7,32.9464306,-106.898216,6044,2024,6,20,16,43,8,1114,4784,96,77,2.1,1.5,1.5,0,0,0,0,26,27,0,0,26,0,24,23,0,0,0,0,0,27,28,18,0,0,0,27,28,0,0,28,35,0,0,0,,,,
6,11041,4,KJ5AXH,19.39,-82,10,5,coast,-11.06,48085,5861.34,4563.33,207.13,34.4,0,0,4.06,-2.69,0.99,0.55,-316.28,1.28,-8.42,0.17,-0.06,0.02,19,4.06,4.08,4.08,0,4.08,1,1,7,32.9464306,-106.898216,6044,2024,6,20,16,43,8,1114,4784,96,77,2.1,1.5,1.5,0,0,0,0,26,27,0,0,26,0,24,23,0,0,0,0,0,27,28,18,0,0,0,27,28,0,0,28,35,0,0,0,,,,
6,11041,4,KJ5AXH,19.41,-87,7,5,coast,-11.06,48085,5861.34,4563.33,207.13,34.4,0,0,4.06,-2.69,0.99,0.55,-316.28,1.28,-8.42,0.17,-0.06,0.02,19,4.06,4.08,4.08,0,4.08,1,1,8,32.9463169,-106.897489,6255,2024,6,20,16,43,9,1183,5005,96,76,1.9,1.2,1.5,0,0,0,0,26,26,0,0,25,0,23,27,0,0,0,0,0,28,28,17,0,0,0,27,29,0,0,28,32,0,0,0,,,,
6,11041,4,KJ5AXH,19.41,-87,7,5,coast,-11.06,48085,5861.34,4563.33,207.13,34.4,0,0,4.06,-2.69,0.99,0.55,-316.28,1.28,-8.42,0.17,-0.06,0.02,19,4.06,4.08,4.08,0,4.08,1,1,8,32.9463169,-106.897489,6255,2024,6,20,16,43,9,1183,5005,96,76,1.9,1.2,1.5,0,0,0,0,26,26,0,0,25,0,23,27,0,0,0,0,0,28,28,17,0,0,0,27,29,0,0,28,32,0,0,0,,,,
6,11041,4,KJ5AXH,19.81,-88,11,5,coast,-13.58,47488,5952.67,4654.66,200.91,34.4,0,0,4.06,-2.55,0.78,0.5,-308.65,1.71,-8.67,0.18,0.44,0.09,16,4.06,4.08,4.08,0,4.08,1,1,8,32.9463169,-106.897489,6255,2024,6,20,16,43,9,1183,5005,96,76,1.9,1.2,1.5,0,0,0,0,26,26,0,0,25,0,23,27,0,0,0,0,0,28,28,17,0,0,0,27,29,0,0,28,32,0,0,0,,,,
6,11041,4,KJ5AXH,19.89,-90,14,5,coast,-13.58,47488,5952.67,4654.66,200.91,34.4,0,0,4.06,-2.55,0.78,0.5,-308.65,1.71,-8.67,0.18,0.44,0.09,16,4.06,4.08,4.08,0,4.08,1,1,8,32.9463169,-106.897489,6255,2024,6,20,16,43,9,1183,5005,96,76,1.9,1.2,1.5,0,0,0,0,26,26,0,0,25,0,23,27,0,0,0,0,0,28,28,17,0,0,0,27,29,0,0,28,32,0,0,0,,,,
6,11041,4,KJ5AXH,20.32,-87,6,5,coast,-11.57,46895,6044.32,4746.31,194.56,34.4,0,0,4.06,-2.29,0.75,0.46,-303.53,0.37,-7.32,0.17,-0.06,0.21,19,4.06,4.08,4.08,0,4.08,1,1,8,32.9463169,-106.897489,6255,2024,6,20,16,43,9,1183,5005,96,76,1.9,1.2,1.5,0,0,0,0,26,26,0,0,25,0,23,27,0,0,0,0,0,28,28,17,0,0,0,27,29,0,0,28,32,0,0,0,,,,
6,11041,4,KJ5AXH,20.4,-87,9,5,coast,-11.57,46895,6044.32,4746.31,194.56,34.4,0,0,4.06,-2.29,0.75,0.46,-303.53,0.37,-7.32,0.17,-0.06,0.21,19,4.06,4.08,4.08,0,4.08,1,1,8,32.9463169,-106.897489,6255,2024,6,20,16,43,9,1183,5005,96,76,1.9,1.2,1.5,0,0,0,0,26,26,0,0,25,0,23,27,0,0,0,0,0,28,28,17,0,0,0,27,29,0,0,28,32,0,0,0,,,,
6,11041,4,KJ5AXH,20.4,-88,11,5,coast,-11.57,46895,6044.32,4746.31,194.56,34.4,0,0,4.06,-2.29,0.75,0.46,-303.53,0.37,-7.32,0.17,-0.06,0.21,19,4.06,4.08,4.08,0,4.08,1,1,8,32.9463169,-106.897489,6255,2024,6,20,16,43,9,1183,5005,96,76,1.9,1.2,1.5,0,0,0,0,26,26,0,0,25,0,23,27,0,0,0,0,0,28,28,17,0,0,0,27,29,0,0,28,32,0,0,0,,,,
6,11041,4,KJ5AXH,20.41,-87,7,5,coast,-11.57,46895,6044.32,4746.31,194.56,34.4,0,0,4.06,-2.29,0.75,0.46,-303.53,0.37,-7.32,0.17,-0.06,0.21,19,4.06,4.08,4.08,0,4.08,1,1,7,32.946209,-106.8967673,6452,2024,6,20,16,43,10,1251,5212,96,76,2,1.2,1.5,0,0,0,0,26,26,0,0,21,0,22,31,0,0,0,0,0,27,27,18,0,0,0,27,31,0,0,28,31,0,0,0,,,,
6,11041,4,KJ5AXH,20.41,-89,5,5,coast,-11.57,46895,6044.32,4746.31,194.56,34.4,0,0,4.06,-2.29,0.75,0.46,-303.53,0.37,-7.32,0.17,-0.06,0.21,19,4.06,4.08,4.08,0,4.08,1,1,7,32.946209,-106.8967673,6452,2024,6,20,16,43,10,1251,5212,96,76,2,1.2,1.5,0,0,0,0,26,26,0,0,21,0,22,31,0,0,0,0,0,27,27,18,0,0,0,27,31,0,0,28,31,0,0,0,,,,
6,11041,4,KJ5AXH,20.83,-82,5,5,coast,-13.58,46367,6126.71,4828.7,188.21,34.5,0,0,4.06,-2.26,0.98,0.36,-295.59,0.98,-6.1,0.18,0.34,-0.1,18,4.06,4.08,4.08,0,4.08,1,1,7,32.946209,-106.8967673,6452,2024,6,20,16,43,10,1251,5212,96,76,2,1.2,1.5,0,0,0,0,26,26,0,0,21,0,22,31,0,0,0,0,0,27,27,18,0,0,0,27,31,0,0,28,31,0,0,0,,,,
6,11041,4,KJ5AXH,20.91,-84,7,5,coast,-13.58,46367,6126.71,4828.7,188.21,34.5,0,0,4.07,-2.26,0.98,0.36,-295.59,0.98,-6.1,0.18,0.34,-0.1,18,4.05,4.08,4.08,0,4.02,1,1,7,32.946209,-106.8967673,6452,2024,6,20,16,43,10,1251,5212,96,76,2,1.2,1.5,0,0,0,0,26,26,0,0,21,0,22,31,0,0,0,0,0,27,27,18,0,0,0,27,31,0,0,28,31,0,0,0,,,,
6,11041,4,KJ5AXH,21.34,-85,7,5,coast,-12.57,45834,6210.66,4912.65,181.63,34.5,0,0,4.07,-2.04,0.7,0.64,-288.76,-1.34,-7.14,0.17,0.14,0.36,19,4.05,4.08,4.08,0,4.02,1,1,7,32.946209,-106.8967673,6452,2024,6,20,16,43,10,1251,5212,96,76,2,1.2,1.5,0,0,0,0,26,26,0,0,21,0,22,31,0,0,0,0,0,27,27,18,0,0,0,27,31,0,0,28,31,0,0,0,,,,
6,11041,4,KJ5AXH,21.41,-83,6,5,coast,-12.57,45834,6210.66,4912.65,181.63,34.5,0,0,4.07,-2.04,0.7,0.64,-288.76,-1.34,-7.14,0.17,0.14,0.36,19,4.05,4.08,4.08,0,4.02,1,1,8,32.9461132,-106.8960522,6636,2024,6,20,16,43,11,1319,5407,96,76,1.9,1.2,1.5,0,0,0,0,31,27,0,0,20,0,22,31,0,0,0,0,0,27,28,18,0,0,0,27,25,0,0,29,31,0,0,0,,,,
6,11041,4,KJ5AXH,21.41,-84,11,5,coast,-12.57,45834,6210.66,4912.65,181.63,34.5,0,0,4.07,-2.04,0.7,0.64,-288.76,-1.34,-7.14,0.17,0.14,0.36,19,4.05,4.08,4.08,0,4.02,1,1,8,32.9461132,-106.8960522,6636,2024,6,20,16,43,11,1319,5407,96,76,1.9,1.2,1.5,0,0,0,0,31,27,0,0,20,0,22,31,0,0,0,0,0,27,28,18,0,0,0,27,25,0,0,29,31,0,0,0,,,,
6,11041,4,KJ5AXH,21.42,-85,8,5,coast,-12.57,45834,6210.66,4912.65,181.63,34.5,0,0,4.06,-2.04,0.7,0.64,-288.76,-1.34,-7.14,0.17,0.14,0.36,19,4.06,4.08,4.08,0,4.08,1,1,8,32.9461132,-106.8960522,6636,2024,6,20,16,43,11,1319,5407,96,76,1.9,1.2,1.5,0,0,0,0,31,27,0,0,20,0,22,31,0,0,0,0,0,27,28,18,0,0,0,27,25,0,0,29,31,0,0,0,,,,
6,11041,4,KJ5AXH,21.85,-84,8,5,coast,-11.57,45325,6291.57,4993.56,175.54,34.5,0,0,4.06,-1.98,0.85,0.73,-285.28,-0.61,-5.25,0.17,0.06,-0.14,20,4.06,4.08,4.08,0,4.08,1,1,8,32.9461132,-106.8960522,6636,2024,6,20,16,43,11,1319,5407,96,76,1.9,1.2,1.5,0,0,0,0,31,27,0,0,20,0,22,31,0,0,0,0,0,27,28,18,0,0,0,27,25,0,0,29,31,0,0,0,,,,
6,11041,4,KJ5AXH,21.93,-84,10,5,coast,-11.57,45325,6291.57,4993.56,175.54,34.5,0,0,4.07,-1.98,0.85,0.73,-285.28,-0.61,-5.25,0.17,0.06,-0.14,20,4.07,4.08,4.08,0,4.08,1,1,8,32.9461132,-106.8960522,6636,2024,6,20,16,43,11,1319,5407,96,76,1.9,1.2,1.5,0,0,0,0,31,27,0,0,20,0,22,31,0,0,0,0,0,27,28,18,0,0,0,27,25,0,0,29,31,0,0,0,,,,
6,11041,4,KJ5AXH,22.36,-91,12,5,coast,-11.06,44829,6371.13,5073.12,169.81,34.5,0,0,4.07,-1.78,0.69,0.6,-278.32,-0.61,-6.96,0.17,0.41,0.21,18,4.07,4.08,4.08,0,4.08,1,1,8,32.9461132,-106.8960522,6636,2024,6,20,16,43,11,1319,5407,96,76,1.9,1.2,1.5,0,0,0,0,31,27,0,0,20,0,22,31,0,0,0,0,0,27,28,18,0,0,0,27,25,0,0,29,31,0,0,0,,,,
6,11041,4,KJ5AXH,22.41,-87,9,5,coast,-11.06,44829,6371.13,5073.12,169.81,34.5,0,0,4.07,-1.78,0.69,0.6,-278.32,-0.61,-6.96,0.17,0.41,0.21,18,4.07,4.08,4.08,0,4.08,1,1,8,32.9460422,-106.8953456,6805,2024,6,20,16,43,12,1385,5587,96,76,1.9,1.2,1.5,0,0,0,0,31,27,0,0,30,0,22,22,0,0,0,0,0,28,33,20,0,0,0,27,26,0,0,32,31,0,0,0,,,,
6,11041,4,KJ5AXH,22.41,-86,6,5,coast,-11.06,44829,6371.13,5073.12,169.81,34.5,0,0,4.07,-1.78,0.69,0.6,-278.32,-0.61,-6.96,0.17,0.41,0.21,18,4.07,4.08,4.08,0,4.08,1,1,8,32.9460422,-106.8953456,6805,2024,6,20,16,43,12,1385,5587,96,76,1.9,1.2,1.5,0,0,0,0,31,27,0,0,30,0,22,22,0,0,0,0,0,28,33,20,0,0,0,27,26,0,0,32,31,0,0,0,,,,
6,11041,4,KJ5AXH,22.44,-89,12,5,coast,-11.06,44829,6371.13,5073.12,169.81,34.5,0,0,4.06,-1.78,0.69,0.6,-278.32,-0.61,-6.96,0.17,0.41,0.21,18,4.07,4.08,4.08,0,4.08,1,1,8,32.9460422,-106.8953456,6805,2024,6,20,16,43,12,1385,5587,96,76,1.9,1.2,1.5,0,0,0,0,31,27,0,0,30,0,22,22,0,0,0,0,0,28,33,20,0,0,0,27,26,0,0,32,31,0,0,0,,,,
6,11041,4,KJ5AXH,22.87,-88,6,5,coast,-12.57,44363,6446.52,5148.51,163.85,34.5,0,0,4.06,-1.73,0.45,0.57,-274.84,-2.69,-5.13,0.16,-0.09,0.16,21,4.07,4.08,4.08,0,4.08,1,1,8,32.9460422,-106.8953456,6805,2024,6,20,16,43,12,1385,5587,96,76,1.9,1.2,1.5,0,0,0,0,31,27,0,0,30,0,22,22,0,0,0,0,0,28,33,20,0,0,0,27,26,0,0,32,31,0,0,0,,,,
6,11041,4,KJ5AXH,22.95,-90,10,5,coast,-12.57,44363,6446.52,5148.51,163.85,34.5,0,0,4.07,-1.73,0.45,0.57,-274.84,-2.69,-5.13,0.16,-0.09,0.16,21,4.06,4.08,4.08,0,4.08,1,1,8,32.9460422,-106.8953456,6805,2024,6,20,16,43,12,1385,5587,96,76,1.9,1.2,1.5,0,0,0,0,31,27,0,0,30,0,22,22,0,0,0,0,0,28,33,20,0,0,0,27,26,0,0,32,31,0,0,0,,,,
6,11041,4,KJ5AXH,23.38,-85,9,5,coast,-11.57,43918,6519.12,5221.11,157.77,34.5,0,0,4.07,-1.55,0.46,0.45,-266.66,-0.79,-4.58,0.17,0.32,-0.13,20,4.06,4.08,4.08,0,4.08,1,1,8,32.9460422,-106.8953456,6805,2024,6,20,16,43,12,1385,5587,96,76,1.9,1.2,1.5,0,0,0,0,31,27,0,0,30,0,22,22,0,0,0,0,0,28,33,20,0,0,0,27,26,0,0,32,31,0,0,0,,,,
6,11041,4,KJ5AXH,23.41,-85,5,5,coast,-11.57,43918,6519.12,5221.11,157.77,34.5,0,0,4.07,-1.55,0.46,0.45,-266.66,-0.79,-4.58,0.17,0.32,-0.13,20,4.06,4.08,4.08,0,4.08,1,1,8,32.9459763,-106.8946495,6964,2024,6,20,16,43,13,1451,5758,96,75,1.9,1.2,1.5,0,0,0,0,25,32,0,0,30,0,23,22,0,0,0,0,0,32,32,20,0,0,0,27,26,0,0,27,29,0,0,0,,,,
6,11041,4,KJ5AXH,23.41,-86,9,5,coast,-11.57,43918,6519.12,5221.11,157.77,34.5,0,0,4.07,-1.55,0.46,0.45,-266.66,-0.79,-4.58,0.17,0.32,-0.13,20,4.06,4.08,4.08,0,4.08,1,1,8,32.9459763,-106.8946495,6964,2024,6,20,16,43,13,1451,5758,96,75,1.9,1.2,1.5,0,0,0,0,25,32,0,0,30,0,23,22,0,0,0,0,0,32,32,20,0,0,0,27,26,0,0,27,29,0,0,0,,,,
6,11041,4,KJ5AXH,23.46,-85,12,5,coast,-11.57,43918,6519.12,5221.11,157.77,34.5,0,0,4.07,-1.55,0.46,0.45,-266.66,-0.79,-4.58,0.17,0.32,-0.13,20,4.06,4.08,4.08,0,4.08,1,1,8,32.9459763,-106.8946495,6964,2024,6,20,16,43,13,1451,5758,96,75,1.9,1.2,1.5,0,0,0,0,25,32,0,0,30,0,23,22,0,0,0,0,0,32,32,20,0,0,0,27,26,0,0,27,29,0,0,0,,,,
6,11041,4,KJ5AXH,23.89,-86,6,5,coast,-11.06,43501,6587.69,5289.68,152.04,34.5,0,0,4.07,-1.39,0.32,0.5,-263.06,-2.5,-5.49,0.16,0.22,0.36,20,4.06,4.08,4.08,0,4.08,1,1,8,32.9459763,-106.8946495,6964,2024,6,20,16,43,13,1451,5758,96,75,1.9,1.2,1.5,0,0,0,0,25,32,0,0,30,0,23,22,0,0,0,0,0,32,32,20,0,0,0,27,26,0,0,27,29,0,0,0,,,,
6,11041,4,KJ5AXH,23.97,-85,11,5,coast,-11.06,43501,6587.69,5289.68,152.04,34.5,0,0,4.06,-1.39,0.32,0.5,-263.06,-2.5,-5.49,0.16,0.22,0.36,20,4.07,4.02,4.08,0,4.08,1,1,8,32.9459763,-106.8946495,6964,2024,6,20,16,43,13,1451,5758,96,75,1.9,1.2,1.5,0,0,0,0,25,32,0,0,30,0,23,22,0,0,0,0,0,32,32,20,0,0,0,27,26,0,0,27,29,0,0,0,,,,
6,11041,4,KJ5AXH,24.4,-89,10,5,coast,-12.57,43093,6655.3,5357.29,146.09,34.5,0,0,4.06,-1.43,0.5,0.53,-267.15,-4.03,-1.53,0.15,-0.06,-0.05,22,4.07,4.02,4.08,0,4.08,1,1,8,32.9459763,-106.8946495,6964,2024,6,20,16,43,13,1451,5758,96,75,1.9,1.2,1.5,0,0,0,0,25,32,0,0,30,0,23,22,0,0,0,0,0,32,32,20,0,0,0,27,26,0,0,27,29,0,0,0,,,,
6,11041,4,KJ5AXH,24.41,-92,9,5,coast,-12.57,43093,6655.3,5357.29,146.09,34.5,0,0,4.06,-1.43,0.5,0.53,-267.15,-4.03,-1.53,0.15,-0.06,-0.05,22,4.07,4.02,4.08,0,4.08,1,1,8,32.9459033,-106.8939657,7109,2024,6,20,16,43,14,1515,5914,96,75,1.9,1.2,1.5,0,0,0,0,27,27,0,0,23,0,30,22,0,0,0,0,0,26,28,19,0,0,0,27,32,0,0,24,35,0,0,0,,,,
6,11041,4,KJ5AXH,24.41,-90,9,5,coast,-12.57,43093,6655.3,5357.29,146.09,34.5,0,0,4.06,-1.43,0.5,0.53,-267.15,-4.03,-1.53,0.15,-0.06,-0.05,22,4.07,4.02,4.08,0,4.08,1,1,8,32.9459033,-106.8939657,7109,2024,6,20,16,43,14,1515,5914,96,75,1.9,1.2,1.5,0,0,0,0,27,27,0,0,23,0,30,22,0,0,0,0,0,26,28,19,0,0,0,27,32,0,0,24,35,0,0,0,,,,
6,11041,4,KJ5AXH,24.48,-87,7,5,coast,-12.57,43093,6655.3,5357.29,146.09,34.5,0,0,4.06,-1.43,0.5,0.53,-267.15,-4.03,-1.53,0.15,-0.06,-0.05,22,4.05,4.08,4.08,0,4.26,1,1,8,32.9459033,-106.8939657,7109,2024,6,20,16,43,14,1515,5914,96,75,1.9,1.2,1.5,0,0,0,0,27,27,0,0,23,0,30,22,0,0,0,0,0,26,28,19,0,0,0,27,32,0,0,24,35,0,0,0,,,,
6,11041,4,KJ5AXH,24.91,-88,7,5,coast,-10.06,42706,6719.91,5421.9,140.37,34.5,0,0,4.06,-1.09,0.53,0.77,-268.55,-0.18,-3.17,0.16,0.45,0.03,22,4.05,4.08,4.08,0,4.26,1,1,8,32.9459033,-106.8939657,7109,2024,6,20,16,43,14,1515,5914,96,75,1.9,1.2,1.5,0,0,0,0,27,27,0,0,23,0,30,22,0,0,0,0,0,26,28,19,0,0,0,27,32,0,0,24,35,0,0,0,,,,
6,11041,4,KJ5AXH,24.99,-90,12,5,coast,-10.06,42706,6719.91,5421.9,140.37,34.5,0,0,4.07,-1.09,0.53,0.77,-268.55,-0.18,-3.17,0.16,0.45,0.03,22,4.06,4.08,4.08,0,4.08,1,1,8,32.9459033,-106.8939657,7109,2024,6,20,16,43,14,1515,5914,96,75,1.9,1.2,1.5,0,0,0,0,27,27,0,0,23,0,30,22,0,0,0,0,0,26,28,19,0,0,0,27,32,0,0,24,35,0,0,0,,,,
6,11041,4,KJ5AXH,25.41,-84,13,5,coast,-10.06,42706,6719.91,5421.9,140.37,34.5,0,0,4.07,-1.09,0.53,0.77,-268.55,-0.18,-3.17,0.16,0.45,0.03,22,4.06,4.08,4.08,0,4.08,1,1,8,32.9458304,-106.8932852,7244,2024,6,20,16,43,15,1579,6061,96,75,1.9,1.2,1.5,0,0,0,0,26,27,0,0,23,0,22,30,0,0,0,0,0,24,28,18,0,0,0,27,28,0,0,30,31,0,0,0,,,,
6,11041,4,KJ5AXH,25.41,-87,14,5,coast,-10.06,42706,6719.91,5421.9,140.37,34.5,0,0,4.07,-1.09,0.53,0.77,-268.55,-0.18,-3.17,0.16,0.45,0.03,22,4.06,4.08,4.08,0,4.08,1,1,8,32.9458304,-106.8932852,7244,2024,6,20,16,43,15,1579,6061,96,75,1.9,1.2,1.5,0,0,0,0,26,27,0,0,23,0,22,30,0,0,0,0,0,24,28,18,0,0,0,27,28,0,0,30,31,0,0,0,,,,
6,11041,4,KJ5AXH,25.42,-87,9,5,coast,-10.56,42330,6783.14,5485.13,135.13,34.5,0,0,4.07,-1.09,0.44,0.8,-270.26,-2.14,-3.3,0.15,0,0.32,23,4.06,4.08,4.08,0,4.08,1,1,8,32.9458304,-106.8932852,7244,2024,6,20,16,43,15,1579,6061,96,75,1.9,1.2,1.5,0,0,0,0,26,27,0,0,23,0,22,30,0,0,0,0,0,24,28,18,0,0,0,27,28,0,0,30,31,0,0,0,,,,
6,11041,4,KJ5AXH,25.5,-87,11,5,coast,-10.56,42330,6783.14,5485.13,135.13,34.5,0,0,4.07,-1.09,0.44,0.8,-270.26,-2.14,-3.3,0.15,0,0.32,23,4.06,4.08,4.08,0,4.08,1,1,8,32.9458304,-106.8932852,7244,2024,6,20,16,43,15,1579,6061,96,75,1.9,1.2,1.5,0,0,0,0,26,27,0,0,23,0,22,30,0,0,0,0,0,24,28,18,0,0,0,27,28,0,0,30,31,0,0,0,,,,
6,11041,4,KJ5AXH,25.5,-90,9,5,coast,-10.56,42330,6783.14,5485.13,135.13,34.5,0,0,4.07,-1.09,0.44,0.8,-270.26,-2.14,-3.3,0.15,0,0.32,23,4.06,4.08,4.08,0,4.08,1,1,8,32.9458304,-106.8932852,7244,2024,6,20,16,43,15,1579,6061,96,75,1.9,1.2,1.5,0,0,0,0,26,27,0,0,23,0,22,30,0,0,0,0,0,24,28,18,0,0,0,27,28,0,0,30,31,0,0,0,,,,
6,11041,4,KJ5AXH,25.93,-84,7,5,coast,-12.07,41980,6842.41,5544.4,129.43,34.5,0,0,4.07,-1.04,0.5,0.56,-272.4,-0.18,-1.1,0.15,0.15,-0.18,24,4.06,4.08,4.08,0,4.08,1,1,8,32.9458304,-106.8932852,7244,2024,6,20,16,43,15,1579,6061,96,75,1.9,1.2,1.5,0,0,0,0,26,27,0,0,23,0,22,30,0,0,0,0,0,24,28,18,0,0,0,27,28,0,0,30,31,0,0,0,,,,
6,11041,4,KJ5AXH,26.01,-84,7,5,coast,-12.07,41980,6842.41,5544.4,129.43,34.5,0,0,4.07,-1.04,0.5,0.56,-272.4,-0.18,-1.1,0.15,0.15,-0.18,24,4.05,4.08,4.08,0,4.08,1,1,8,32.9458304,-106.8932852,7244,2024,6,20,16,43,15,1579,6061,96,75,1.9,1.2,1.5,0,0,0,0,26,27,0,0,23,0,22,30,0,0,0,0,0,24,28,18,0,0,0,27,28,0,0,30,31,0,0,0,,,,
6,11041,4,KJ5AXH,26.41,-87,6,5,coast,-12.07,41980,6842.41,5544.4,129.43,34.5,0,0,4.07,-1.04,0.5,0.56,-272.4,-0.18,-1.1,0.15,0.15,-0.18,24,4.05,4.08,4.08,0,4.08,1,1,8,32.9457587,-106.8926131,7366,2024,6,20,16,43,16,1642,6196,97,75,1.9,1.2,1.5,0,0,0,0,31,26,0,0,30,0,23,23,0,0,0,0,0,30,33,19,0,0,0,27,28,0,0,31,30,0,0,0,,,,
6,11041,4,KJ5AXH,26.41,-88,9,5,coast,-12.07,41980,6842.41,5544.4,129.43,34.5,0,0,4.07,-1.04,0.5,0.56,-272.4,-0.18,-1.1,0.15,0.15,-0.18,24,4.05,4.08,4.08,0,4.08,1,1,8,32.9457587,-106.8926131,7366,2024,6,20,16,43,16,1642,6196,97,75,1.9,1.2,1.5,0,0,0,0,31,26,0,0,30,0,23,23,0,0,0,0,0,30,33,19,0,0,0,27,28,0,0,31,30,0,0,0,,,,
6,11041,4,KJ5AXH,26.44,-92,10,5,coast,-12.07,41638,6900.71,5602.7,123.38,34.5,0,0,4.07,-0.93,0.49,0.42,-259.58,1.83,-6.16,0.16,0.39,0.27,25,4.05,4.08,4.08,0,4.08,1,1,8,32.9457587,-106.8926131,7366,2024,6,20,16,43,16,1642,6196,97,75,1.9,1.2,1.5,0,0,0,0,31,26,0,0,30,0,23,23,0,0,0,0,0,30,33,19,0,0,0,27,28,0,0,31,30,0,0,0,,,,
6,11041,4,KJ5AXH,26.52,-91,7,5,coast,-12.07,41638,6900.71,5602.7,123.38,34.5,0,0,4.07,-0.93,0.49,0.42,-259.58,1.83,-6.16,0.16,0.39,0.27,25,4.06,4.08,4.08,0,4.08,1,1,8,32.9457587,-106.8926131,7366,2024,6,20,16,43,16,1642,6196,97,75,1.9,1.2,1.5,0,0,0,0,31,26,0,0,30,0,23,23,0,0,0,0,0,30,33,19,0,0,0,27,28,0,0,31,30,0,0,0,,,,
6,11041,4,KJ5AXH,26.95,-89,9,5,coast,-9.05,41338,6952.17,5654.16,118.02,34.5,0,0,4.07,-0.88,0.42,0.5,-246.22,-3.97,-4.82,0.14,-0.1,0.17,28,4.06,4.08,4.08,0,4.08,1,1,8,32.9457587,-106.8926131,7366,2024,6,20,16,43,16,1642,6196,97,75,1.9,1.2,1.5,0,0,0,0,31,26,0,0,30,0,23,23,0,0,0,0,0,30,33,19,0,0,0,27,28,0,0,31,30,0,0,0,,,,
6,11041,4,KJ5AXH,27.03,-90,6,5,coast,-9.05,41338,6952.17,5654.16,118.02,34.5,0,0,4.07,-0.88,0.42,0.5,-246.22,-3.97,-4.82,0.14,-0.1,0.17,28,4.06,4.08,4.08,0,4.08,1,1,8,32.9457587,-106.8926131,7366,2024,6,20,16,43,16,1642,6196,97,75,1.9,1.2,1.5,0,0,0,0,31,26,0,0,30,0,23,23,0,0,0,0,0,30,33,19,0,0,0,27,28,0,0,31,30,0,0,0,,,,
6,11041,4,KJ5AXH,27.42,-87,8,5,coast,-9.05,41338,6952.17,5654.16,118.02,34.5,0,0,4.07,-0.88,0.42,0.5,-246.22,-3.97,-4.82,0.14,-0.1,0.17,28,4.06,4.08,4.08,0,4.08,1,1,8,32.9456959,-106.8919418,7479,2024,6,20,16,43,17,1705,6321,97,74,1.9,1.2,1.5,0,0,0,0,25,32,0,0,30,0,23,23,0,0,0,0,0,34,28,19,0,0,0,26,28,0,0,30,29,0,0,0,,,,
6,11041,4,KJ5AXH,27.42,-87,7,5,coast,-9.05,41338,6952.17,5654.16,118.02,34.5,0,0,4.07,-0.88,0.42,0.5,-246.22,-3.97,-4.82,0.14,-0.1,0.17,28,4.06,4.08,4.08,0,4.08,1,1,8,32.9456959,-106.8919418,7479,2024,6,20,16,43,17,1705,6321,97,74,1.9,1.2,1.5,0,0,0,0,25,32,0,0,30,0,23,23,0,0,0,0,0,34,28,19,0,0,0,26,28,0,0,30,29,0,0,0,,,,
6,11041,4,KJ5AXH,27.46,-85,8,5,coast,-12.57,41023,7006.53,5708.52,112.57,34.5,0,0,4.07,-0.72,0.45,0.42,-236.39,-0.92,-1.95,0.16,0.26,-0.18,28,4.06,4.08,4.08,0,4.08,1,1,8,32.9456959,-106.8919418,7479,2024,6,20,16,43,17,1705,6321,97,74,1.9,1.2,1.5,0,0,0,0,25,32,0,0,30,0,23,23,0,0,0,0,0,34,28,19,0,0,0,26,28,0,0,30,29,0,0,0,,,,
6,11041,4,KJ5AXH,27.54,-84,5,5,coast,-12.57,41023,7006.53,5708.52,112.57,34.5,0,0,4.07,-0.72,0.45,0.42,-236.39,-0.92,-1.95,0.16,0.26,-0.18,28,4.06,4.08,4.08,0,4.08,1,1,8,32.9456959,-106.8919418,7479,2024,6,20,16,43,17,1705,6321,97,74,1.9,1.2,1.5,0,0,0,0,25,32,0,0,30,0,23,23,0,0,0,0,0,34,28,19,0,0,0,26,28,0,0,30,29,0,0,0,,,,
6,11041,4,KJ5AXH,27.97,-94,9,5,coast,-11.57,40743,7055.13,5757.12,106.55,34.5,0,0,4.07,-0.76,0.32,0.41,-227.23,-0.24,-5.07,0.16,0.38,0.29,28,4.06,4.08,4.08,0,4.08,1,1,8,32.9456959,-106.8919418,7479,2024,6,20,16,43,17,1705,6321,97,74,1.9,1.2,1.5,0,0,0,0,25,32,0,0,30,0,23,23,0,0,0,0,0,34,28,19,0,0,0,26,28,0,0,30,29,0,0,0,,,,
6,11041,4,KJ5AXH,28.05,-90,6,5,coast,-11.57,40743,7055.13,5757.12,106.55,34.5,0,0,4.07,-0.76,0.32,0.41,-227.23,-0.24,-5.07,0.16,0.38,0.29,28,4.06,4.08,4.08,0,4.08,1,1,8,32.9456959,-106.8919418,7479,2024,6,20,16,43,17,1705,6321,97,74,1.9,1.2,1.5,0,0,0,0,25,32,0,0,30,0,23,23,0,0,0,0,0,34,28,19,0,0,0,26,28,0,0,30,29,0,0,0,,,,
6,11041,4,KJ5AXH,28.41,-84,7,5,coast,-11.57,40743,7055.13,5757.12,106.55,34.5,0,0,4.07,-0.76,0.32,0.41,-227.23,-0.24,-5.07,0.16,0.38,0.29,28,4.06,4.08,4.08,0,4.08,1,1,8,32.9456293,-106.891274,7581,2024,6,20,16,43,18,1768,6437,97,74,1.9,1.2,1.5,0,0,0,0,26,26,0,0,24,0,30,29,0,0,0,0,0,23,27,17,0,0,0,27,33,0,0,23,29,0,0,0,,,,
6,11041,4,KJ5AXH,28.41,-84,5,5,coast,-11.57,40743,7055.13,5757.12,106.55,34.5,0,0,4.07,-0.76,0.32,0.41,-227.23,-0.24,-5.07,0.16,0.38,0.29,28,4.06,4.08,4.08,0,4.08,1,1,8,32.9456293,-106.891274,7581,2024,6,20,16,43,18,1768,6437,97,74,1.9,1.2,1.5,0,0,0,0,26,26,0,0,24,0,30,29,0,0,0,0,0,23,27,17,0,0,0,27,33,0,0,23,29,0,0,0,,,,
6,11041,4,KJ5AXH,28.48,-87,13,5,coast,-12.57,40489,7099.46,5801.45,100.54,34.5,0,0,4.07,-0.63,0.38,0.52,-227.23,-3.72,-1.89,0.14,-0.1,0.2,31,4.06,4.08,4.08,0,4.08,1,1,8,32.9456293,-106.891274,7581,2024,6,20,16,43,18,1768,6437,97,74,1.9,1.2,1.5,0,0,0,0,26,26,0,0,24,0,30,29,0,0,0,0,0,23,27,17,0,0,0,27,33,0,0,23,29,0,0,0,,,,
6,11041,4,KJ5AXH,28.56,-87,9,5,coast,-12.57,40489,7099.46,5801.45,100.54,34.5,0,0,4.06,-0.63,0.38,0.52,-227.23,-3.72,-1.89,0.14,-0.1,0.2,31,4.06,4.08,4.08,0,4.08,1,1,8,32.9456293,-106.891274,7581,2024,6,20,16,43,18,1768,6437,97,74,1.9,1.2,1.5,0,0,0,0,26,26,0,0,24,0,30,29,0,0,0,0,0,23,27,17,0,0,0,27,33,0,0,23,29,0,0,0,,,,
6,11041,4,KJ5AXH,28.99,-84,7,5,coast,-11.06,40246,7142.08,5844.07,94.66,34.5,0,0,4.06,-0.51,0.3,0.35,-222.78,0.73,-1.65,0.14,0.18,-0.2,31,4.06,4.08,4.08,0,4.08,1,1,8,32.9456293,-106.891274,7581,2024,6,20,16,43,18,1768,6437,97,74,1.9,1.2,1.5,0,0,0,0,26,26,0,0,24,0,30,29,0,0,0,0,0,23,27,17,0,0,0,27,33,0,0,23,29,0,0,0,,,,
6,11041,4,KJ5AXH,29.07,-84,6,5,coast,-11.06,40246,7142.08,5844.07,94.66,34.5,0,0,4.06,-0.51,0.3,0.35,-222.78,0.73,-1.65,0.14,0.18,-0.2,31,4.06,4.08,4.08,0,4.08,1,1,8,32.9456293,-106.891274,7581,2024,6,20,16,43,18,1768,6437,97,74,1.9,1.2,1.5,0,0,0,0,26,26,0,0,24,0,30,29,0,0,0,0,0,23,27,17,0,0,0,27,33,0,0,23,29,0,0,0,,,,
6,11041,4,KJ5AXH,29.41,-91,10,5,coast,-11.06,40246,7142.08,5844.07,94.66,34.5,0,0,4.06,-0.51,0.3,0.35,-222.78,0.73,-1.65,0.14,0.18,-0.2,31,4.06,4.08,4.08,0,4.08,1,1,8,32.9455712,-106.8906106,7672,2024,6,20,16,43,19,1830,6541,97,74,1.9,1.2,1.5,0,0,0,0,32,26,0,0,24,0,23,23,0,0,0,0,0,29,28,18,0,0,0,27,28,0,0,30,30,0,0,0,,,,
6,11041,4,KJ5AXH,29.41,-92,8,5,coast,-11.06,40246,7142.08,5844.07,94.66,34.5,0,0,4.06,-0.51,0.3,0.35,-222.78,0.73,-1.65,0.14,0.18,-0.2,31,4.06,4.08,4.08,0,4.08,1,1,8,32.9455712,-106.8906106,7672,2024,6,20,16,43,19,1830,6541,97,74,1.9,1.2,1.5,0,0,0,0,32,26,0,0,24,0,23,23,0,0,0,0,0,29,28,18,0,0,0,27,28,0,0,30,30,0,0,0,,,,
